{"version": 0.6, "generator": "Overpass API 0.7.62.1 084b4234", "osm3s": {"timestamp_osm_base": "2024-04-04T16:35:18Z", "copyright": "The data included in this document is from www.openstreetmap.org. The data is made available under ODbL."}, "elements": [{"type": "node", "id": 151223420, "lat": 40.4851211, "lon": -3.6897765, "tags": {"amenity": "kindergarten", "check_date": "2023-10-29", "created_by": "Potlatch 0.5d", "name": "Guarder\u00eda Sancalo"}}, {"type": "node", "id": 264265133, "lat": 40.5034846, "lon": -3.672583}, {"type": "node", "id": 264265134, "lat": 40.5031113, "lon": -3.6730235}, {"type": "node", "id": 264265136, "lat": 40.5026773, "lon": -3.6723874}, {"type": "node", "id": 264265137, "lat": 40.5030506, "lon": -3.6719469}, {"type": "node", "id": 264503737, "lat": 40.4616093, "lon": -3.7863213}, {"type": "node", "id": 264503738, "lat": 40.4614159, "lon": -3.785661}, {"type": "node", "id": 264503742, "lat": 40.4605715, "lon": -3.7856661}, {"type": "node", "id": 264503743, "lat": 40.4605888, "lon": -3.7859285}, {"type": "node", "id": 264503744, "lat": 40.4605657, "lon": -3.7862314}, {"type": "node", "id": 266167436, "lat": 40.3935714, "lon": -3.6628612, "tags": {"addr:city": "Madrid", "addr:housenumber": "3", "addr:postcode": "28018", "addr:street": "Plaza de Sierra Ministra", "amenity": "kindergarten", "fax": "+34914787913", "isced:level": "0", "name": "Escuela Infantil Manuel Siurot", "old_name": "Colegio P\u00fablico Batalla de Brunete", "phone": "+34914787913", "ref:educamadrid": "28005121", "short_name": "EEI Manuel Siurot"}}, {"type": "node", "id": 266167443, "lat": 40.3842185, "lon": -3.7300339, "tags": {"addr:housenumber": "20", "addr:postcode": "28025", "addr:street": "Calle del Avefr\u00eda", "amenity": "kindergarten", "isced:level": "0", "name": "Escuela Infantil Privada Cervantes Baby", "operator:type": "private", "phone": "+34914615068;+34679516414", "ref:educamadrid": "28004291", "short_name": "EIPR Cervantes Baby"}}, {"type": "node", "id": 266167562, "lat": 40.4391175, "lon": -3.6625525, "tags": {"addr:housenumber": "1", "addr:postcode": "28028", "addr:street": "Calle de Bristol", "amenity": "kindergarten", "email": "direccion@eipaeducacion.com", "isced:level": "0", "name": "Escuela Infantil Privada Eipa Escuela Infantil Parque de las Avenidas", "operator:type": "private", "phone": "+34911167470;+34641461492", "ref:educamadrid": "28006846", "short_name": "EIPR Eipa EEI Parque de las Avenidas"}}, {"type": "node", "id": 266167563, "lat": 40.4274181, "lon": -3.7089933, "tags": {"addr:housenumber": "10", "addr:postcode": "28015", "addr:street": "Plaza de las Comendadoras", "amenity": "kindergarten", "email": "cc.comendadoras.madrid@educa.madrid.org", "isced:level": "0", "name": "Centro Privado de Educaci\u00f3n Infantil Comendadoras de Santiago", "operator:type": "private", "phone": "+34915481842;+34617865284;+34689591357", "ref:educamadrid": "28007085", "short_name": "CPEI Comendadoras de Santiago", "website": "http://www.comendadoras-madrid.com"}}, {"type": "node", "id": 266167575, "lat": 40.450838, "lon": -3.6857573, "tags": {"addr:housenumber": "30", "addr:postcode": "28002", "addr:street": "Calle del Darro", "amenity": "kindergarten", "email": "info@reinadelosangeles.es", "isced:level": "0", "name": "Centro Privado de Educaci\u00f3n Infantil Reina de los \u00c1ngeles", "operator:type": "private", "phone": "+34915638760;+34609030368", "ref:educamadrid": "28008818", "short_name": "CPEI Reina de los \u00c1ngeles"}}, {"type": "node", "id": 266167593, "lat": 40.4308428, "lon": -3.7060322, "tags": {"addr:housenumber": "99", "addr:postcode": "28015", "addr:street": "Calle de San Bernardo", "amenity": "kindergarten", "email": "cc.nsdelosdolores.madrid@educa.madrid.org", "isced:level": "0", "name": "Escuela Infantil Privada Nuestra Se\u00f1ora de los Dolores", "operator:type": "private", "phone": "+34914483426", "ref:educamadrid": "28008259", "short_name": "EIPR Nuestra Se\u00f1ora de los Dolores"}}, {"type": "node", "id": 266167608, "lat": 40.4870134, "lon": -3.6885621, "tags": {"addr:housenumber": "48", "addr:postcode": "28034", "addr:street": "Calle de \u00c1ngel M\u00fagica", "amenity": "kindergarten", "email": "cc.virgendebegona.madrid@educa.madrid.org", "fax": "+34917291840", "isced:level": "0", "name": "Centro Privado de Educaci\u00f3n Infantil Virgen de Bego\u00f1a", "operator:type": "private", "phone": "+34917291840;+34655907334", "ref:educamadrid": "28009963", "short_name": "CPEI Virgen de Bego\u00f1a"}}, {"type": "node", "id": 266167623, "lat": 40.4498579, "lon": -3.6854407, "tags": {"addr:housenumber": "23", "addr:postcode": "28002", "addr:street": "Calle Alfonso Rodr\u00edguez Santamar\u00eda", "amenity": "kindergarten", "fax": "+34915643166", "isced:level": "0", "name": "Kindergarten La Salle", "operator:type": "private", "phone": "+34915635176", "ref:educamadrid": "28008971"}}, {"type": "node", "id": 266167624, "lat": 40.3891325, "lon": -3.7363478, "tags": {"addr:housenumber": "10", "addr:postcode": "28025", "addr:street": "Calle del Abolengo", "amenity": "kindergarten", "email": "cc.sanroque.madrid@educa.madrid.org", "isced:level": "0", "name": "Escuela Infantil Privada San Roque", "operator:type": "private", "phone": "+34914617109;+34687813248", "ref:educamadrid": "28009434", "short_name": "EIPR San Roque", "website": "http://www.escuelasanroque.es"}}, {"type": "node", "id": 266167696, "lat": 40.4559471, "lon": -3.692985, "tags": {"addr:housenumber": "5", "addr:postcode": "28020", "addr:street": "Calle de San Germ\u00e1n", "amenity": "kindergarten", "check_date": "2023-05-19", "email": "info@jardinkinderland.es", "isced:level": "0", "name": "Escuela Infantil Privada Jard\u00edn Kinderland", "operator:type": "private", "phone": "+34915552068", "ref:educamadrid": "28012445", "short_name": "EIPR Jard\u00edn Kinderland", "website": "https://www.jardinkinderland.es/"}}, {"type": "node", "id": 266167704, "lat": 40.4466061, "lon": -3.6802667, "tags": {"addr:housenumber": "46", "addr:postcode": "28002", "addr:street": "Calle de Rodr\u00edguez Mar\u00edn", "amenity": "kindergarten", "fax": "+34915611389", "isced:level": "0", "name": "Hansel y Grethel", "operator:type": "private", "phone": "+34915634996", "ref:educamadrid": "28012071"}}, {"type": "node", "id": 266167823, "lat": 40.4596414, "lon": -3.6503592, "tags": {"addr:city": "Madrid", "addr:housenumber": "28", "addr:postcode": "28043", "addr:street": "Calle de N\u00e1poles", "amenity": "kindergarten", "name": "Centro Privado de Educaci\u00f3n Infantil Santa Claus", "operator:type": "private", "phone": "+34914135338", "ref:educamadrid": "28014375", "short_name": "CPEI Santa Claus", "website": "https://www.escuelainfantilsantaclaus.com/"}}, {"type": "node", "id": 266167864, "lat": 40.3915883, "lon": -3.6623231, "tags": {"addr:housenumber": "6", "addr:postcode": "28053", "addr:street": "Calle Antonio Dur\u00e1n Tovar", "amenity": "kindergarten", "email": "cc.loslapazares.madrid@educa.madrid.org", "fax": "+34914771327", "isced:level": "0", "name": "Centro Privado de Educaci\u00f3n Infantil Los Lapazares", "operator:type": "private", "phone": "+34914775628", "ref:educamadrid": "28016219", "short_name": "CPEI Los Lapazares", "website": "https://www.materclem.es/"}}, {"type": "node", "id": 266167869, "lat": 40.4530898, "lon": -3.5916123, "tags": {"addr:housenumber": "28", "addr:postcode": "28042", "addr:street": "Calle del Balandro", "amenity": "kindergarten", "isced:level": "0", "name": "Mi Cole", "operator:type": "private", "phone": "+34917427060", "ref:educamadrid": "28016891"}}, {"type": "node", "id": 266167870, "lat": 40.4230978, "lon": -3.663176, "tags": {"addr:housenumber": "38", "addr:postcode": "28028", "addr:street": "Calle Jos\u00e9 Celestino Mutis", "amenity": "kindergarten", "email": "nuria@escuelainfantillospinos.com", "isced:level": "0", "name": "Escuela Infantil Privada Los Pinos", "operator:type": "private", "phone": "+34917250761", "ref:educamadrid": "28017145", "short_name": "EIPR Los Pinos"}}, {"type": "node", "id": 266167887, "lat": 40.3810677, "lon": -3.7739574, "tags": {"addr:postcode": "28044", "addr:street": "Calle de Blas Cabrera", "amenity": "kindergarten", "fax": "+34917064033", "isced:level": "0", "name": "Escuela de Educaci\u00f3n Infantil Jes\u00fas Divino Obrero", "operator:type": "private", "phone": "+34917064033", "ref:educamadrid": "28018216"}}, {"type": "node", "id": 266167929, "lat": 40.4230314, "lon": -3.657173, "tags": {"addr:housenumber": "114", "addr:postcode": "28017", "addr:street": "Calle de Ricardo Ortiz", "amenity": "kindergarten", "isced:level": "0", "name": "Sagrada Familia", "operator:type": "private", "phone": "+34913551119", "ref:educamadrid": "28019661"}}, {"type": "node", "id": 266168021, "lat": 40.3977434, "lon": -3.7698471, "tags": {"addr:housenumber": "24", "addr:postcode": "28024", "addr:street": "Calle de Villaviciosa", "amenity": "kindergarten", "email": "cc.monsenoralvesbras.madrid@educa.madrid.org", "fax": "+34917118051", "isced:level": "0", "name": "Escuela Infantil Privada Monse\u00f1or Alves Bras", "operator:type": "private", "phone": "+34915182640;+34915182642", "ref:educamadrid": "28021641", "short_name": "EIPR Monse\u00f1or Alves Bras"}}, {"type": "node", "id": 266168101, "lat": 40.4068699, "lon": -3.75192, "tags": {"addr:housenumber": "29", "addr:postcode": "28011", "addr:street": "Calle de Villaman\u00edn", "amenity": "kindergarten", "email": "santamonica93@gmail.com", "isced:level": "0", "name": "Escuela Infantil Privada Santa M\u00f3nica", "operator:type": "private", "phone": "+34914649839", "ref:educamadrid": "28022281", "short_name": "EIPR Santa M\u00f3nica"}}, {"type": "node", "id": 266168102, "lat": 40.39289, "lon": -3.7031458, "tags": {"addr:postcode": "28026", "addr:street": "Calle de San Graciano", "amenity": "kindergarten", "isced:level": "0", "name": "Fisbis", "operator:type": "private", "phone": "+34914756702", "ref:educamadrid": "28022220"}}, {"type": "node", "id": 266168106, "lat": 40.4105917, "lon": -3.6492267, "tags": {"addr:city": "Madrid", "addr:housenumber": "5", "addr:postcode": "28030", "addr:street": "Calle del Corregidor Jos\u00e9 de Pasamonte", "amenity": "kindergarten", "email": "centrovida@centrovida.es", "isced:level": "0", "name": "Escuela Infantil Privada Vida", "operator:type": "private", "phone": "+34914309859;+34616959534", "ref:educamadrid": "28022359", "short_name": "EIPR Vida", "website": "http://www.centrovida.es/"}}, {"type": "node", "id": 266168335, "lat": 40.3789296, "lon": -3.7507826, "tags": {"addr:housenumber": "7", "addr:postcode": "28047", "addr:street": "Calle del Ping\u00fcino", "amenity": "kindergarten", "fax": "+34916167792", "isced:level": "0", "name": "Parque", "operator:type": "private", "phone": "+34914610288", "ref:educamadrid": "28026109"}}, {"type": "node", "id": 266168337, "lat": 40.4350174, "lon": -3.6711865, "tags": {"addr:housenumber": "26", "addr:postcode": "28028", "addr:street": "Calle de Ferrer del R\u00edo", "amenity": "kindergarten", "email": "cc.cunadejesus.madrid@educa.madrid.org", "fax": "+34917269457", "isced:level": "0", "name": "Escuela Infantil Privada Cuna de Jes\u00fas", "operator:type": "private", "phone": "+34917256327;+34913557668", "ref:educamadrid": "28026158", "short_name": "EIPR Cuna de Jes\u00fas"}}, {"type": "node", "id": 266168360, "lat": 40.4155186, "lon": -3.6726772, "tags": {"addr:city": "Madrid", "addr:housenumber": "5", "addr:postcode": "28009", "addr:street": "Plaza del Doctor Laguna", "amenity": "kindergarten", "email": "retiro@projardin.es", "fax": "+34915735357", "isced:level": "0", "name": "Escuela Infantil Privada Projardin Retiro", "operator:type": "private", "phone": "+34914090968;+34606212241", "ref:educamadrid": "28025920", "short_name": "EIPR Projardin Retiro"}}, {"type": "node", "id": 266168408, "lat": 40.4558317, "lon": -3.5885942, "tags": {"addr:housenumber": "1", "addr:postcode": "28042", "addr:street": "Plaza del Nav\u00edo", "amenity": "kindergarten", "email": "escuelasinfantilesandal@gmail.com", "isced:level": "0", "name": "Escuela Infantil Privada Andal Alameda", "operator:type": "private", "phone": "+34917410017", "ref:educamadrid": "28028635", "short_name": "EIPR Andal Alameda"}}, {"type": "node", "id": 266168420, "lat": 40.3990263, "lon": -3.699962, "tags": {"addr:housenumber": "50", "addr:postcode": "28045", "addr:street": "Calle de C\u00e1ceres", "amenity": "kindergarten", "email": "info@escuelainfantilpipos.es", "isced:level": "0", "name": "Centro Privado de Educaci\u00f3n Infantil Pipo's", "operator:type": "private", "phone": "+34914736299;+34691669616", "ref:educamadrid": "28028490", "short_name": "CPEI Pipo's"}}, {"type": "node", "id": 266168437, "lat": 40.4458861, "lon": -3.717981, "tags": {"addr:housenumber": "6", "addr:postcode": "28003", "addr:street": "Calle de Vicente Aleixandre", "amenity": "kindergarten", "email": "eisanalonso.madrid@agustinas.es", "isced:level": "0", "name": "Escuela Infantil Privada San Alonso de Orozco", "operator:type": "private", "phone": "+34915531097;+34650831333", "ref:educamadrid": "28028283", "short_name": "EIPR San Alonso de Orozco", "website": "http://madrid.agustinas.es/"}}, {"type": "node", "id": 266168448, "lat": 40.4655816, "lon": -3.7752059}, {"type": "node", "id": 266168463, "lat": 40.4417984, "lon": -3.6766629, "tags": {"addr:housenumber": "3", "addr:postcode": "28002", "addr:street": "Calle de Quintiliano", "amenity": "kindergarten", "email": "cc.nazaretchamartin.madrid@educa.madrid.org", "fax": "+34915617244", "isced:level": "0", "name": "Centro Privado de Educaci\u00f3n Infantil Nazaret", "operator:type": "private", "phone": "+34915617244;+34619953397", "ref:educamadrid": "28030319", "short_name": "CPEI Nazaret"}}, {"type": "node", "id": 266168556, "lat": 40.4108515, "lon": -3.6539905, "tags": {"addr:housenumber": "51", "addr:postcode": "28030", "addr:street": "Calle del Camino de los Vinateros", "amenity": "kindergarten", "isced:level": "0", "name": "Escuela Infantil Tren de Piscis", "operator:type": "private", "phone": "+34914301159", "ref:educamadrid": "28029767", "short_name": "EEI Tren de Piscis"}}, {"type": "node", "id": 266168576, "lat": 40.4638727, "lon": -3.663684, "tags": {"addr:housenumber": "5", "addr:postcode": "28033", "addr:street": "Calle de Aleixandre", "amenity": "kindergarten", "fax": "+34918518903", "isced:level": "0", "name": "Magdalena Aulina", "operator:type": "private", "phone": "+34913591607", "ref:educamadrid": "28032729"}}, {"type": "node", "id": 266168589, "lat": 40.4341757, "lon": -3.7149093, "tags": {"addr:housenumber": "61", "addr:postcode": "28015", "addr:street": "Calle de Fernando el Cat\u00f3lico", "amenity": "kindergarten", "email": "palomagonza@yahoo.es", "isced:level": "0", "name": "Escuela Infantil Privada Agarimo", "operator:type": "private", "phone": "+34915445466", "ref:educamadrid": "28033394", "short_name": "EIPR Agarimo"}}, {"type": "node", "id": 266168614, "lat": 40.4456395, "lon": -3.7002434, "tags": {"addr:housenumber": "28", "addr:postcode": "28003", "addr:street": "Calle de Alenza", "amenity": "kindergarten", "email": "cc.verboencarnado.madrid@educa.madrid.org", "isced:level": "0", "name": "Centro Privado de Educaci\u00f3n Infantil Verbo Encarnado", "operator:type": "private", "phone": "+34915340516;+34915343243", "ref:educamadrid": "28033023", "short_name": "CPEI Verbo Encarnado", "website": "http://www.educa.madrid.org/cc.verboencarnado.madrid"}}, {"type": "node", "id": 266168692, "lat": 40.3943263, "lon": -3.7523662, "tags": {"addr:housenumber": "69", "addr:postcode": "28047", "addr:street": "Calle de los Y\u00e9benes", "amenity": "kindergarten", "email": "educartearlequin@gmail.com", "isced:level": "0", "name": "Escuela Infantil Privada Arlequ\u00edn", "operator:type": "private", "phone": "+34917192982;+34655152826;+34678233071", "ref:educamadrid": "28031385", "short_name": "EIPR Arlequ\u00edn", "website": "http://escuelainfantilarlequin.com/"}}, {"type": "node", "id": 266168710, "lat": 40.3529246, "lon": -3.6805743, "tags": {"addr:housenumber": "21", "addr:postcode": "28021", "addr:street": "Calle del T\u00e1ntalo", "amenity": "kindergarten", "email": "cc.santaluisa.madrid@educa.madrid.org", "isced:level": "0", "name": "Centro Privado de Educaci\u00f3n Infantil Santa Luisa", "operator:type": "private", "phone": "+34917960853", "ref:educamadrid": "28032109", "short_name": "CPEI Santa Luisa"}}, {"type": "node", "id": 266168721, "lat": 40.4078303, "lon": -3.6820848, "tags": {"addr:housenumber": "18", "addr:postcode": "28014", "addr:street": "Calle de Andr\u00e9s Torrej\u00f3n", "amenity": "kindergarten", "isced:level": "0", "name": "Niro", "operator:type": "private", "phone": "+34915524561", "ref:educamadrid": "28031609"}}, {"type": "node", "id": 266168727, "lat": 40.379085, "lon": -3.7507419, "tags": {"addr:housenumber": "7", "addr:postcode": "28047", "addr:street": "Calle del Ping\u00fcino", "amenity": "kindergarten", "isced:level": "0", "name": "Peque\u00f1ines", "operator:type": "private", "phone": "+34915257235", "ref:educamadrid": "28031567"}}, {"type": "node", "id": 266168745, "lat": 40.4973066, "lon": -3.6885068, "tags": {"addr:housenumber": "19", "addr:postcode": "28034", "addr:street": "Calle de Afueras a Valverde", "amenity": "kindergarten", "isced:level": "0", "name": "Yaki", "operator:type": "private", "phone": "+34913550621", "ref:educamadrid": "28035721"}}, {"type": "node", "id": 266168748, "lat": 40.4152588, "lon": -3.6752577, "tags": {"addr:housenumber": "24", "addr:postcode": "28009", "addr:street": "Calle del Doce de Octubre", "amenity": "kindergarten", "email": "escuelamagos@gmail.com", "isced:level": "0", "name": "Escuela Infantil Privada Magos", "operator:type": "private", "phone": "+34640734319;+3461069610", "ref:educamadrid": "28035858", "short_name": "EIPR Magos"}}, {"type": "node", "id": 266168759, "lat": 40.4770912, "lon": -3.7325401, "tags": {"addr:housenumber": "338", "addr:postcode": "28035", "addr:street": "Avenida del Cardenal Herrera Oria", "amenity": "kindergarten", "isced:level": "0", "name": "El Patio de Mi Casa", "operator:type": "private", "phone": "+34913160955", "ref:educamadrid": "28036000"}}, {"type": "node", "id": 266168761, "lat": 40.397388, "lon": -3.6923674, "tags": {"addr:city": "Madrid", "addr:housenumber": "43", "addr:postcode": "28045", "addr:street": "Calle de Tom\u00e1s Bret\u00f3n", "amenity": "kindergarten", "email": "contacto@jardindelasdelicias.net", "isced:level": "0", "name": "Escuela Infantil Privada Jard\u00edn de las Delicias", "opening_hours": "Mo-Fr 07:30-18:00", "operator:type": "private", "phone": "+34915304863", "ref:educamadrid": "28036024", "short_name": "EIPR Jard\u00edn de las Delicias", "website": "http://lnx.jardindelasdelicias.net", "wheelchair": "yes"}}, {"type": "node", "id": 266168762, "lat": 40.3808099, "lon": -3.708656, "tags": {"addr:city": "Madrid", "addr:housenumber": "10", "addr:postcode": "28026", "addr:street": "Calle de Gonz\u00e1lez Arias", "amenity": "kindergarten", "email": "ei.lacometa@hotmail.com", "fax": "+34914769181", "isced:level": "0", "name": "Escuela Infantil Privada La Cometa", "operator:type": "private", "phone": "+34914769181;+34640082678", "ref:educamadrid": "28036516", "short_name": "EIPR La Cometa", "website": "https://escuelainfantillacometa.es/"}}, {"type": "node", "id": 266168792, "lat": 40.4071509, "lon": -3.6483644, "tags": {"addr:housenumber": "141", "addr:postcode": "28030", "addr:street": "Avenida de Moratalaz", "amenity": "kindergarten", "email": "lacasitadelospitufosmoratalaz2@gmail.com", "isced:level": "0", "name": "Escuela Infantil Privada La Casita de los Pitufos II", "operator:type": "private", "phone": "+34916183104;+34660276277", "ref:educamadrid": "28037132", "short_name": "EIPR La Casita de los Pitufos II"}}, {"type": "node", "id": 266168796, "lat": 40.3850034, "lon": -3.7260154, "tags": {"addr:housenumber": "1", "addr:postcode": "28025", "addr:street": "Plaza de San Vicente de Pa\u00fal", "amenity": "kindergarten", "email": "cc.sanvicentedepaul.madrid@educa.madrid.org", "fax": "+34914691445", "isced:level": "0", "name": "Escuela Infantil Privada San Vicente de Pa\u00fal", "operator:type": "private", "phone": "+34914691445;+34601138122", "ref:educamadrid": "28037430", "short_name": "EIPR San Vicente de Pa\u00fal", "website": "https://www.escuelainfantilsanvicente.com/"}}, {"type": "node", "id": 266168837, "lat": 40.4784006, "lon": -3.7059276, "tags": {"addr:housenumber": "14", "addr:postcode": "28029", "addr:street": "Plaza de Mondariz", "amenity": "kindergarten", "fax": "+34917303930", "isced:level": "0", "name": "La Locomotora", "operator:type": "private", "phone": "+34917303930", "ref:educamadrid": "28034696"}}, {"type": "node", "id": 266168934, "lat": 40.4804481, "lon": -3.7267675, "tags": {"addr:housenumber": "19", "addr:postcode": "28035", "addr:street": "Calle de Alicia Baena", "amenity": "kindergarten", "email": "escuelaeduka@gmail.com", "isced:level": "0", "name": "Escuela Infantil Privada Eduka, Escuela Infantil", "operator:type": "private", "phone": "+34913167443", "ref:educamadrid": "28039402", "short_name": "EIPR Eduka, EEI", "website": "http://www.escuelainfantileduka.com"}}, {"type": "node", "id": 266169061, "lat": 40.3814134, "lon": -3.7923287}, {"type": "node", "id": 266169074, "lat": 40.3919789, "lon": -3.6472591, "tags": {"addr:housenumber": "1", "addr:postcode": "28038", "addr:street": "Calle Arenas de Igu\u00f1a", "amenity": "kindergarten", "email": "cc.nazaret.madrid@educa.madrid.org", "isced:level": "0", "name": "Centro Privado de Educaci\u00f3n Infantil Nazaret", "operator:type": "private", "phone": "+34917771022", "ref:educamadrid": "28041019", "short_name": "CPEI Nazaret"}}, {"type": "node", "id": 266169180, "lat": 40.3779132, "lon": -3.7536718, "tags": {"addr:housenumber": "74", "addr:postcode": "28047", "addr:street": "Calle de Jacobinia", "amenity": "kindergarten", "email": "virgendelparque@yahoo.es", "isced:level": "0", "name": "Escuela Infantil Privada Virgen del Parque", "operator:type": "private", "phone": "+34914660986;+34616861526", "ref:educamadrid": "28040261", "short_name": "EIPR Virgen del Parque"}}, {"type": "node", "id": 266169189, "lat": 40.3826083, "lon": -3.770405}, {"type": "node", "id": 266169190, "lat": 40.4004827, "lon": -3.6523231, "tags": {"addr:postcode": "28038", "addr:street": "Calle de Ram\u00f3n P\u00e9rez de Ayala", "amenity": "kindergarten", "email": "eei.losgirasoles.madrid@educa.madrid.org", "fax": "+34914301500", "isced:level": "0", "name": "Escuela Infantil Los Girasoles", "operator": "Comunidad de Madrid", "operator:type": "public", "phone": "+34914374020", "ref:educamadrid": "28043545", "short_name": "EEI Los Girasoles", "website": "https://www.educa2.madrid.org/web/centro.eei.losgirasoles.madrid"}}, {"type": "node", "id": 266169191, "lat": 40.3842671, "lon": -3.7016118, "tags": {"addr:housenumber": "30", "addr:postcode": "28026", "addr:street": "Calle de las Hijas de Jes\u00fas", "amenity": "kindergarten", "email": "eei.lajara.madrid@educa.madrid.org", "fax": "+34914769480", "isced:level": "0", "name": "Escuela Infantil La Jara", "operator": "Comunidad de Madrid", "operator:type": "public", "phone": "+34914769480;+34626532634", "ref:educamadrid": "28043557", "short_name": "EEI La Jara", "website": "http://www.educa.madrid.org/eei.lajara.madrid"}}, {"type": "node", "id": 266169194, "lat": 40.4431567, "lon": -3.6143856}, {"type": "node", "id": 266169195, "lat": 40.3823633, "lon": -3.6167011}, {"type": "node", "id": 266169199, "lat": 40.3834173, "lon": -3.6137413}, {"type": "node", "id": 266169203, "lat": 40.4030559, "lon": -3.7482599, "tags": {"addr:housenumber": "8", "addr:postcode": "28047", "addr:street": "Calle de Pradales", "amenity": "kindergarten", "email": "eei.chavalitos.madrid@educa.madrid.org", "fax": "+34914630659", "isced:level": "0", "name": "Escuela Infantil Chavalitos", "operator": "Comunidad de Madrid", "operator:type": "public", "phone": "+34914647850;+34914647591", "ref:educamadrid": "28043508", "short_name": "EEI Chavalitos", "website": "http://www.educa.madrid.org/eei.chavalitos.madrid"}}, {"type": "node", "id": 266169206, "lat": 40.5483975, "lon": -3.6947663, "tags": {"addr:postcode": "28049", "amenity": "kindergarten", "email": "eei.barbelinhelder.madrid@educa.madrid.org", "fax": "+34914972301", "isced:level": "0", "name": "Escuela Infantil B\u00e4rbel Inhelder", "operator:type": "public", "phone": "+34914972303;+34914972300", "ref:educamadrid": "28043740", "short_name": "EEI B\u00e4rbel Inhelder", "website": "http://www.educa.madrid.org/eei.barbelinhelder.madrid"}}, {"type": "node", "id": 266169209, "lat": 40.3443823, "lon": -3.684753, "tags": {"addr:housenumber": "109", "addr:postcode": "28021", "addr:street": "Calle de Benimamet", "amenity": "kindergarten", "email": "eei.laluna.madrid@educa.madrid.org", "fax": "+34917951408", "isced:level": "0", "name": "Escuela Infantil La Luna", "operator:type": "public", "phone": "+34915051417", "ref:educamadrid": "28043791", "short_name": "EEI La Luna", "website": "http://www.educa.madrid.org/eei.laluna.madrid"}}, {"type": "node", "id": 266169210, "lat": 40.4880852, "lon": -3.6848848, "tags": {"addr:housenumber": "1", "addr:postcode": "28034", "addr:street": "Calle Belorado", "amenity": "kindergarten", "email": "eei.lacaracola.madrid@educa.madrid.org", "isced:level": "0", "name": "Escuela Infantil La Caracola", "operator:type": "public", "phone": "+34913341938", "ref:educamadrid": "28043788", "short_name": "EEI La Caracola", "website": "http://www.educa.madrid.org/eei.lacaracola.madrid"}}, {"type": "node", "id": 266169212, "lat": 40.3733742, "lon": -3.6928051, "tags": {"addr:housenumber": "14", "addr:postcode": "28041", "addr:street": "Calle de la Estafeta", "amenity": "kindergarten", "email": "eei.sanfermin.madrid@educa.madrid.org", "fax": "+34917920502", "isced:level": "0", "name": "Escuela Infantil San Ferm\u00edn", "operator": "Comunidad de Madrid", "operator:type": "public", "phone": "+34917920502", "ref:educamadrid": "28043661", "short_name": "EEI San Ferm\u00edn", "website": "http://www.educa.madrid.org/eei.sanfermin.madrid"}}, {"type": "node", "id": 266169213, "lat": 40.3936967, "lon": -3.7326034, "tags": {"addr:housenumber": "18", "addr:postcode": "28019", "addr:street": "Plaza Roger de Flor", "amenity": "kindergarten", "email": "eei.rogerdeflor.madrid@educa.madrid.org", "fax": "+34914717774", "isced:level": "0", "name": "Escuela Infantil Roger de Flor", "operator": "Comunidad de Madrid", "operator:type": "public", "phone": "+34914717774;+34630823862", "ref:educamadrid": "28043651", "short_name": "EEI Roger de Flor", "website": "http://www.educa.madrid.org/eei.rogerdeflor.madrid"}}, {"type": "node", "id": 266169217, "lat": 40.4354905, "lon": -3.7091922, "tags": {"addr:housenumber": "42", "addr:postcode": "28015", "addr:street": "Calle de Fern\u00e1ndez de los R\u00edos", "amenity": "kindergarten", "email": "eei.vallehermoso.madrid@educa.madrid.org", "fax": "+34915941326", "isced:level": "0", "name": "Escuela Infantil Vallehermoso", "operator": "Comunidad de Madrid", "operator:type": "public", "phone": "+34915941326", "ref:educamadrid": "28043715", "short_name": "EEI Vallehermoso", "website": "http://www.educa.madrid.org/eei.vallehermoso.madrid"}}, {"type": "node", "id": 266169227, "lat": 40.4612031, "lon": -3.6584876, "tags": {"addr:housenumber": "386", "addr:postcode": "28043", "addr:street": "Calle de L\u00f3pez de Hoyos", "amenity": "kindergarten", "email": "r.cajal@rcajal.es", "fax": "+34915191424", "isced:level": "0", "name": "Centro Privado de Educaci\u00f3n Infantil Ram\u00f3n y Cajal", "operator:type": "private", "phone": "+34913000288;+34913005664", "ref:educamadrid": "28043168", "short_name": "CPEI Ram\u00f3n y Cajal"}}, {"type": "node", "id": 266169240, "lat": 40.3681492, "lon": -3.701622, "tags": {"addr:housenumber": "1", "addr:postcode": "28041", "addr:street": "Calle de Albaic\u00edn", "amenity": "kindergarten", "email": "eei.albaicin.madrid@educa.madrid.org", "fax": "+34913171194", "isced:level": "0", "name": "Escuela Infantil Albaic\u00edn", "operator": "Comunidad de Madrid", "operator:type": "public", "phone": "+34913171194;+34630142953", "ref:educamadrid": "28043405", "short_name": "EEI Albaic\u00edn", "website": "http://www.educa.madrid.org/eei.albaicin.madrid"}}, {"type": "node", "id": 266169351, "lat": 40.4661103, "lon": -3.6310724, "tags": {"addr:housenumber": "36", "addr:postcode": "28043", "addr:street": "Calle de Motilla del Palancar", "amenity": "kindergarten", "email": "cc.santarosalia.madrid@educa.madrid.org", "fax": "+34913001988", "isced:level": "0", "name": "Escuela Infantil Privada Santa Rosal\u00eda", "operator:type": "private", "phone": "+34913001988;+34690010214", "ref:educamadrid": "28045542", "short_name": "EIPR Santa Rosal\u00eda"}}, {"type": "node", "id": 266169370, "lat": 40.3410401, "lon": -3.6907066}, {"type": "node", "id": 266169371, "lat": 40.4106956, "lon": -3.7116612, "tags": {"addr:housenumber": "4", "addr:postcode": "28005", "addr:street": "Calle Tabernillas", "amenity": "kindergarten", "email": "eei.municipallapaloma.madrid@educa.madrid.org", "fax": "+34913669006", "isced:level": "0", "name": "Escuela Infantil La Paloma", "operator:type": "public", "phone": "+34913642491", "ref:educamadrid": "28044859", "short_name": "EEI La Paloma", "website": "http://www.educa.madrid.org/eei.municipallapaloma.madrid"}}, {"type": "node", "id": 266169373, "lat": 40.4218334, "lon": -3.6684961, "tags": {"addr:housenumber": "3", "addr:postcode": "28028", "addr:street": "Calle Condes de Torreanaz", "amenity": "kindergarten", "isced:level": "0", "operator:type": "private", "phone": "+34914091827", "ref:educamadrid": "28044884"}}, {"type": "node", "id": 266169376, "lat": 40.4410373, "lon": -3.6476632, "tags": {"addr:housenumber": "34", "addr:postcode": "28027", "addr:street": "Calle del Estrecho de Corea", "amenity": "kindergarten", "email": "escuelainfantildelphos@gmail.com", "isced:level": "0", "name": "Escuela Infantil Privada Delphos", "operator:type": "private", "phone": "+34914086309;+34640783490", "ref:educamadrid": "28044914", "short_name": "EIPR Delphos", "website": "https://escuelainfantildelphos.es/"}}, {"type": "node", "id": 266169380, "lat": 40.467202, "lon": -3.7236953, "tags": {"addr:housenumber": "6", "addr:postcode": "28035", "addr:street": "Calle Ruperto Andr\u00e9s", "amenity": "kindergarten", "email": "presenciagitana@presenciagitana.org", "fax": "+34913734462", "isced:level": "0", "name": "Centro Privado de Educaci\u00f3n Infantil Can-ta-chimutri (sol y Luna)", "operator:type": "private", "phone": "+34913738282;+34649047444;+34913736207", "ref:educamadrid": "28044951", "short_name": "CPEI Can-ta-chimutri (sol y Luna)"}}, {"type": "node", "id": 266169523, "lat": 40.404783, "lon": -3.615526, "tags": {"addr:city": "Madrid", "addr:housenumber": "20", "addr:postcode": "28032", "addr:street": "Camino Viejo de Vic\u00e1lvaro", "amenity": "kindergarten", "email": "escuelainfantil@pequekoala.es", "isced:level": "0", "name": "Escuela Infantil Privada Peque\u00f1o Koala", "operator:type": "private", "phone": "+34913719836", "ref:educamadrid": "28046686", "short_name": "EIPR Peque\u00f1o Koala"}}, {"type": "node", "id": 266169560, "lat": 40.4381719, "lon": -3.6072652}, {"type": "node", "id": 266169573, "lat": 40.4665324, "lon": -3.6490202, "tags": {"addr:housenumber": "48", "addr:postcode": "28043", "addr:street": "Calle de Alejandro Villegas", "amenity": "kindergarten", "email": "marisamoya.4@gmail.com", "isced:level": "0", "name": "Escuela Infantil Privada Gran V\u00eda", "operator:type": "private", "phone": "+34913000630", "ref:educamadrid": "28046054", "short_name": "EIPR Gran V\u00eda", "website": "https://www.escuelainfantilgranvia.com/"}}, {"type": "node", "id": 266169662, "lat": 40.3972135, "lon": -3.7192153, "tags": {"addr:housenumber": "8", "addr:postcode": "28019", "addr:street": "Calle de Antonio Vico", "amenity": "kindergarten", "email": "eei.lapradera.madrid@educa.madrid.org", "fax": "+34914723816", "isced:level": "0", "name": "Escuela Infantil La Pradera", "operator": "Comunidad de Madrid", "operator:type": "public", "phone": "+34914723816", "ref:educamadrid": "28048661", "short_name": "EEI La Pradera", "website": "http://www.educa.madrid.org/eei.lapradera.madrid", "wheelchair": "limited"}}, {"type": "node", "id": 266169670, "lat": 40.4582674, "lon": -3.7769211}, {"type": "node", "id": 266169707, "lat": 40.3492002, "lon": -3.6989746, "tags": {"addr:housenumber": "12", "addr:postcode": "28021", "addr:street": "Calle Cifuentes", "amenity": "kindergarten", "email": "eei.elsur.madrid@educa.madrid.org", "fax": "+34917979754", "isced:level": "0", "name": "Escuela Infantil El Sur", "operator": "Comunidad de Madrid", "operator:type": "public", "phone": "+34917983944", "ref:educamadrid": "28047915", "short_name": "EEI El Sur", "website": "http://www.educa.madrid.org/eei.elsur.madrid"}}, {"type": "node", "id": 266169708, "lat": 40.3946793, "lon": -3.7235098, "tags": {"addr:housenumber": "8", "addr:postcode": "28019", "addr:street": "Calle de Inglaterra", "amenity": "kindergarten", "email": "cn.lopedevega.madrid@educa.madrid.org", "fax": "+34914722560", "isced:level": "0", "name": "Escuela Infantil-casa de Ni\u00f1os Lope de Vega", "operator": "Comunidad de Madrid", "operator:type": "public", "phone": "+34914722560", "ref:educamadrid": "28047903", "short_name": "EEI Lope de Vega", "website": "http://www.educa.madrid.org/cn.lopedevega.madrid"}}, {"type": "node", "id": 266169731, "lat": 40.3968693, "lon": -3.7559035, "tags": {"addr:housenumber": "6", "addr:postcode": "28047", "addr:street": "Calle de los Y\u00e9benes", "amenity": "kindergarten", "email": "cn.amadeovives.madrid@educa.madrid.org", "fax": "+34917080207", "isced:level": "0", "name": "Escuela Infantil Amadeo Vives", "operator": "Comunidad de Madrid", "operator:type": "public", "phone": "+34687011831", "ref:educamadrid": "28047861", "short_name": "EEI Amadeo Vives", "website": "http://www.educa.madrid.org/cn.amadeovives.madrid"}}, {"type": "node", "id": 266169736, "lat": 40.4732282, "lon": -3.6464796, "tags": {"addr:housenumber": "6", "addr:postcode": "28033", "addr:street": "Calle del Mar Caspio", "amenity": "kindergarten", "email": "eei.parquehortaleza.madrid@educa.madrid.org", "fax": "+34913815461", "isced:level": "0", "name": "Escuela de Educaci\u00f3n Infantil Parque de Hortaleza", "operator": "Comunidad de Madrid", "operator:type": "public", "phone": "+34913815461;+34608497998", "ref:educamadrid": "28047897", "short_name": "EEI Parque de Hortaleza", "website": "http://www.educa.madrid.org/eei.parquehortaleza.madrid"}}, {"type": "node", "id": 266169746, "lat": 40.4227266, "lon": -3.6192962, "tags": {"addr:housenumber": "34", "addr:postcode": "28037", "addr:street": "Calle Amposta", "amenity": "kindergarten", "email": "eei.hiedra.madrid@educa.madrid.org", "isced:level": "0", "name": "Escuela Infantil Hiedra", "operator:type": "public", "phone": "+34913062533", "ref:educamadrid": "28047654", "short_name": "EEI Hiedra", "website": "http://www.educa.madrid.org/eei.hiedra.madrid"}}, {"type": "node", "id": 266169760, "lat": 40.4657009, "lon": -3.6798926, "tags": {"addr:city": "Madrid", "addr:housenumber": "173", "addr:postcode": "28036", "addr:street": "Calle de Men\u00e9ndez Pidal", "amenity": "kindergarten", "email": "eei.rosa.madrid@educa.madrid.org", "isced:level": "0", "name": "Escuela Infantil Rosa", "operator": "Comunidad de Madrid", "operator:type": "public", "phone": "+34913501362;+34608434511", "ref:educamadrid": "28047691", "short_name": "EEI Rosa", "website": "http://www.educa.madrid.org/eei.rosa.madrid"}}, {"type": "node", "id": 266169765, "lat": 40.4714578, "lon": -3.5786799, "tags": {"addr:housenumber": "2", "addr:postcode": "28042", "addr:street": "Calle de Nuestra Se\u00f1ora de Araceli", "amenity": "kindergarten", "email": "eei.lacolina.madrid@educa.madrid.org", "isced:level": "0", "name": "Escuela Infantil La Colina", "operator:type": "public", "phone": "+34913010167;+34635337550", "ref:educamadrid": "28047484", "short_name": "EEI La Colina", "website": "http://www.educa.madrid.org/eei.lacolina.madrid"}}, {"type": "node", "id": 266169827, "lat": 40.4219207, "lon": -3.6514873, "tags": {"addr:housenumber": "38", "addr:postcode": "28017", "addr:street": "Calle del Poeta Blas de Otero", "amenity": "kindergarten", "email": "escuelainfantilalce@gmail.com", "isced:level": "0", "name": "Escuela Infantil Privada Alce", "operator:type": "private", "phone": "+34910409944;+34605177517", "ref:educamadrid": "28050598", "short_name": "EIPR Alce", "website": "https://www.escuelainfantilalce.com/"}}, {"type": "node", "id": 266169837, "lat": 40.4363288, "lon": -3.647407, "tags": {"addr:housenumber": "13", "addr:postcode": "28027", "addr:street": "Calle de la Virgen de Lluc", "amenity": "kindergarten", "email": "ESTELACHAVESP@HOTMAIL.COM", "isced:level": "0", "name": "Escuela Infantil Privada Denenes", "operator:type": "private", "phone": "+34914072609;+34635449949", "ref:educamadrid": "28050483", "short_name": "EIPR Denenes"}}, {"type": "node", "id": 266169890, "lat": 40.4691276, "lon": -3.6510863, "tags": {"addr:housenumber": "4", "addr:postcode": "28043", "addr:street": "Calle Ar\u00e1nzazu", "amenity": "kindergarten", "email": "mama.queca@telefonica.net", "isced:level": "0", "name": "Escuela Infantil Privada Mam\u00e1 Queca I", "operator:type": "private", "phone": "+34913814463;+34687956282;+34627439191", "ref:educamadrid": "28056692", "short_name": "EIPR Mam\u00e1 Queca I", "website": "https://mamaqueca.es/"}}, {"type": "node", "id": 266169909, "lat": 40.4100165, "lon": -3.6369918, "tags": {"addr:city": "Madrid", "addr:housenumber": "7", "addr:postcode": "28030", "addr:street": "Calle de Antonio Cumella", "amenity": "kindergarten", "isced:level": "0", "name": "Escuela Infantil Mi Cole", "operator:type": "private", "phone": "+34913711235", "ref:educamadrid": "28056515", "short_name": "EEI Mi Cole"}}, {"type": "node", "id": 266169910, "lat": 40.3803439, "lon": -3.6974005, "tags": {"addr:housenumber": "39", "addr:postcode": "28026", "addr:street": "Calle de Tomelloso", "amenity": "kindergarten", "email": "zcn.capital1.madrid@educa.madrid.org", "isced:level": "0", "name": "Zona Casas de Ni\u00f1os Capital-1, Nuestra Se\u00f1ora de la Fuencisla", "operator": "Comunidad de Madrid", "operator:type": "public", "phone": "+34914752598", "ref:educamadrid": "28056382", "website": "http://www.educa.madrid.org/zcn.capital1.madrid"}}, {"type": "node", "id": 266169913, "lat": 40.4189884, "lon": -3.6117072, "tags": {"addr:housenumber": "156", "addr:postcode": "28032", "addr:street": "Calle Toscana", "amenity": "kindergarten", "email": "infoluismapetonga@gmail.com", "isced:level": "0", "name": "Escuela Infantil Privada Luismapetonga-peluches", "operator:type": "private", "phone": "+34913135907;+34609725299", "ref:educamadrid": "28056473", "short_name": "EIPR Luismapetonga-peluches", "website": "https://escuelasinfantilesluismapetonga.com/"}}, {"type": "node", "id": 266169952, "lat": 40.4262782, "lon": -3.7158514, "tags": {"addr:housenumber": "11", "addr:postcode": "28008", "addr:street": "Calle de Evaristo San Miguel", "amenity": "kindergarten", "email": "contacto@eljardindelosgenios.es", "isced:level": "0", "name": "Escuela Infantil Privada El Jard\u00edn de los Genios", "operator:type": "private", "phone": "+34915478067", "ref:educamadrid": "28056874", "short_name": "EIPR El Jard\u00edn de los Genios", "website": "https://www.eljardindelosgenios.es/"}}, {"type": "node", "id": 266169954, "lat": 40.4818816, "lon": -3.7200897, "tags": {"addr:postcode": "28035", "addr:street": "Plaza Pico Salvaguardia", "amenity": "kindergarten", "email": "cc.sanvictor.madrid@educa.madrid.org", "fax": "+34917387714", "isced:level": "0", "name": "Escuela Infantil Privada San V\u00edctor", "operator:type": "private", "phone": "+34917387714", "ref:educamadrid": "28056862", "short_name": "EIPR San V\u00edctor", "website": "https://www.educacioninfantilsanvictor.es/"}}, {"type": "node", "id": 266169955, "lat": 40.44511, "lon": -3.7185829, "tags": {"addr:housenumber": "37", "addr:postcode": "28003", "addr:street": "Calle de la Poeta \u00c1ngela Figuera", "amenity": "kindergarten", "email": "paloma@colegiofem.es", "isced:level": "0", "name": "Escuela Infantil Privada Little Fem", "operator:type": "private", "phone": "+34915335469", "ref:educamadrid": "28056850", "short_name": "EIPR Little Fem"}}, {"type": "node", "id": 266169956, "lat": 40.4738361, "lon": -3.821569, "tags": {"addr:housenumber": "12", "addr:postcode": "28023", "addr:street": "Calle Lamiaco", "amenity": "kindergarten", "email": "casamontessorimadrid@gmail.com", "isced:level": "0", "name": "Centro Privado de Educaci\u00f3n Infantil Escuela Montessori Madrid", "operator:type": "private", "phone": "+34913729720;+34689708887", "ref:educamadrid": "28056849", "short_name": "CPEI Escuela Montessori Madrid", "website": "https://www.escuelamontessorimadrid.com/"}}, {"type": "node", "id": 266169960, "lat": 40.3790804, "lon": -3.6679652}, {"type": "node", "id": 266169961, "lat": 40.3799781, "lon": -3.6978304, "tags": {"addr:housenumber": "39", "addr:postcode": "28026", "addr:street": "Calle de Tomelloso", "amenity": "kindergarten", "email": "cn.fuencisla.madrid@educa.madrid.org", "fax": "+34914752598", "isced:level": "0", "name": "Escuela Infantil-casa de Ni\u00f1os Nuestra Se\u00f1ora de la Fuencisla", "operator": "Comunidad de Madrid", "operator:type": "public", "phone": "+34914752598", "ref:educamadrid": "28056783", "short_name": "EEI Nuestra Se\u00f1ora de la Fuencisla", "website": "http://www.educa.madrid.org/cn.fuencisla.madrid"}}, {"type": "node", "id": 266169962, "lat": 40.4832131, "lon": -3.720462, "tags": {"addr:housenumber": "24", "addr:postcode": "28035", "addr:street": "Calle Pico Balaitus", "amenity": "kindergarten", "email": "cn.bravomurillo.madrid@educa.madrid.org", "fax": "+34917308460", "isced:level": "0", "name": "Escuela Infantil-casa de Ni\u00f1os Bravo Murillo", "operator": "Comunidad de Madrid", "operator:type": "public", "phone": "+34917308460", "ref:educamadrid": "28056771", "short_name": "EEI Bravo Murillo", "website": "http://www.educa.madrid.org/cn.bravomurillo.madrid"}}, {"type": "node", "id": 266169964, "lat": 40.428147, "lon": -3.6562961, "tags": {"addr:housenumber": "10", "addr:postcode": "28017", "addr:street": "Calle Ram\u00f3n Patuel", "amenity": "kindergarten", "email": "ventas@projardin.es", "fax": "+34917250134", "isced:level": "0", "name": "Escuela Infantil Privada Projardin Ventas", "operator:type": "private", "phone": "+34917250134", "ref:educamadrid": "28056734", "short_name": "EIPR Projardin Ventas"}}, {"type": "node", "id": 266169965, "lat": 40.4385117, "lon": -3.6404743, "tags": {"addr:housenumber": "12", "addr:postcode": "28027", "addr:street": "Calle de Florencio Garc\u00eda", "amenity": "kindergarten", "email": "e.i.jesusn@gmail.com", "isced:level": "0", "name": "Escuela Infantil Privada Jes\u00fas Ni\u00f1o", "operator:type": "private", "phone": "+34676117067;+34914078672;+34628229864", "ref:educamadrid": "28056722", "short_name": "EIPR Jes\u00fas Ni\u00f1o"}}, {"type": "node", "id": 266169970, "lat": 40.4459158, "lon": -3.6455801, "tags": {"addr:housenumber": "8", "addr:postcode": "28027", "addr:street": "Calle del Marqu\u00e9s de Portugalete", "amenity": "kindergarten", "isced:level": "0", "name": "Pelus\u00edn", "operator:type": "private", "phone": "+34917421866", "ref:educamadrid": "28048968"}}, {"type": "node", "id": 266169985, "lat": 40.4236253, "lon": -3.6129154, "tags": {"addr:housenumber": "82", "addr:postcode": "28022", "addr:street": "Avenida de Canillejas a Vic\u00e1lvaro", "amenity": "kindergarten", "email": "eei.piruetas.madrid@educa.madrid.org", "fax": "+34917755605", "isced:level": "0", "name": "Escuela Infantil Piruetas", "operator": "Comunidad de Madrid", "operator:type": "public", "phone": "+34917601049", "ref:educamadrid": "28049146", "short_name": "EEI Piruetas", "website": "http://www.educa.madrid.org/eei.piruetas.madrid"}}, {"type": "node", "id": 266169993, "lat": 40.4023142, "lon": -3.7146965, "tags": {"addr:housenumber": "91", "addr:postcode": "28005", "addr:street": "Paseo Imperial", "amenity": "kindergarten", "email": "escuinfpequenines@hotmail.com", "isced:level": "0", "name": "Escuela Infantil Privada Peque\u00f1ines", "operator:type": "private", "phone": "+34913645472", "ref:educamadrid": "28048831", "short_name": "EIPR Peque\u00f1ines"}}, {"type": "node", "id": 266170002, "lat": 40.4029325, "lon": -3.6481668, "tags": {"addr:housenumber": "21", "addr:postcode": "28030", "addr:street": "Calle del Corregidor Juan Francisco de Luj\u00e1n", "amenity": "kindergarten", "email": "cc.cricri.madrid@educa.madrid.org", "isced:level": "0", "name": "Centro Privado de Educaci\u00f3n Infantil Cri-cri", "operator:type": "private", "phone": "+34914394005;+34618156491", "ref:educamadrid": "28048956", "short_name": "CPEI Cri-cri", "website": "https://ceicricri.com/"}}, {"type": "node", "id": 266170014, "lat": 40.4918947, "lon": -3.7031069, "tags": {"addr:housenumber": "13", "addr:postcode": "28034", "addr:street": "Calle de Pe\u00f1a Pintada", "amenity": "kindergarten", "email": "sandra@kinderparadies-madrid.com", "language:de": "main", "name": "Centro Docente Extranjero En Espa\u00f1a Kinderparadies (alem\u00e1n)", "operator:type": "private", "phone": "+34917359710;+34625335094;+34679968874", "ref:educamadrid": "28049471", "website": "http://www.kinderparadies-madrid.com"}}, {"type": "node", "id": 266170022, "lat": 40.3701865, "lon": -3.6895579, "tags": {"addr:housenumber": "34", "addr:postcode": "28041", "addr:street": "Avenida de los Fueros", "amenity": "kindergarten", "email": "cn.brasil.madrid@educa.madrid.org", "fax": "+34914758106", "isced:level": "0", "name": "Escuela Infantil-casa de Ni\u00f1os Rep\u00fablica del Brasil", "operator": "Comunidad de Madrid", "operator:type": "public", "phone": "+34914758106", "ref:educamadrid": "28049183", "short_name": "EEI Rep\u00fablica del Brasil", "website": "http://www.educa.madrid.org/cn.brasil.madrid"}}, {"type": "node", "id": 266170026, "lat": 40.4562393, "lon": -3.6756159, "tags": {"addr:city": "Madrid", "addr:housenumber": "14", "addr:postcode": "28016", "addr:street": "Calle de Chile", "amenity": "kindergarten", "isced:level": "0", "name": "Escuela Infantil Privada Menagar", "operator:type": "private", "phone": "+34914579026;+34686758965", "ref:educamadrid": "28049250", "short_name": "EIPR Menagar", "website": "https://www.menagar.com/"}}, {"type": "node", "id": 266170033, "lat": 40.4799317, "lon": -3.6746775, "tags": {"addr:housenumber": "34", "addr:postcode": "28036", "addr:street": "Avenida de Burgos", "amenity": "kindergarten", "email": "info@eieltren.es", "isced:level": "0", "name": "Escuela Infantil Privada El Tren de los Ni\u00f1os", "operator:type": "private", "phone": "+34917660801;+34313025639", "ref:educamadrid": "28049304", "short_name": "EIPR El Tren de los Ni\u00f1os"}}, {"type": "node", "id": 266170034, "lat": 40.4398771, "lon": -3.6157483, "tags": {"addr:housenumber": "23", "addr:postcode": "28037", "addr:street": "Calle de Pandora", "amenity": "kindergarten", "email": "educacionlibrelaluna@gmail.com", "isced:level": "0", "name": "Escuela Infantil Privada Ellaluna", "operator:type": "private", "phone": "+34627485207", "ref:educamadrid": "28049274", "short_name": "EIPR Ellaluna", "website": "http://educacionlibrelaluna.wixsite.com/ellaluna"}}, {"type": "node", "id": 266170042, "lat": 40.4494617, "lon": -3.7820985, "tags": {"addr:housenumber": "37", "addr:postcode": "28023", "addr:street": "Calle de H\u00famera", "amenity": "kindergarten", "email": "escuelainfantilmamatina@yahoo.es", "fax": "+34913078519", "isced:level": "0", "name": "Escuela Infantil Privada Mamatina", "operator:type": "private", "phone": "+34913078519;+34676564198", "ref:educamadrid": "28049894", "short_name": "EIPR Mamatina"}}, {"type": "node", "id": 266170043, "lat": 40.4156031, "lon": -3.6721875, "tags": {"addr:city": "Madrid", "addr:housenumber": "6", "addr:postcode": "28009", "addr:street": "Plaza del Doctor Laguna", "amenity": "kindergarten", "fax": "+34915735357", "isced:level": "0", "name": "Projardin Retiro-1", "operator:type": "private", "phone": "+34914090968", "ref:educamadrid": "28049882"}}, {"type": "node", "id": 266170049, "lat": 40.4743223, "lon": -3.6524378, "tags": {"addr:housenumber": "32", "addr:postcode": "28033", "addr:street": "Avenida de la Virgen del Carmen", "amenity": "kindergarten", "email": "cn.sanmiguel.madrid@educa.madrid.org", "fax": "+34913820145", "isced:level": "0", "name": "Escuela Infantil-casa de Ni\u00f1os San Miguel", "operator": "Comunidad de Madrid", "operator:type": "public", "phone": "+34913820145", "ref:educamadrid": "28049961", "short_name": "EEI San Miguel", "website": "http://www.educa.madrid.org/cn.sanmiguel.madrid"}}, {"type": "node", "id": 266170050, "lat": 40.464846, "lon": -3.7133221, "tags": {"addr:housenumber": "46", "addr:postcode": "28039", "addr:street": "Calle de Armenteros", "amenity": "kindergarten", "email": "cn.danielvazquezdi.madrid@educa.madrid.org", "fax": "+34913113496", "isced:level": "0", "name": "Escuela Infantil-casa de Ni\u00f1os Daniel V\u00e1zquez D\u00edaz", "operator": "Comunidad de Madrid", "operator:type": "public", "phone": "+34913113496", "ref:educamadrid": "28049951", "short_name": "EEI Daniel V\u00e1zquez D\u00edaz", "website": "http://www.educa.madrid.org/cn.danielvazquezdi.madrid"}}, {"type": "node", "id": 266170058, "lat": 40.4083963, "lon": -3.6484277, "tags": {"addr:housenumber": "45", "addr:postcode": "28030", "addr:street": "Calle de la Marroquina", "amenity": "kindergarten", "email": "cc.catalinalaboure.madrid@educa.madrid.org", "fax": "+34914374877", "isced:level": "0", "name": "Escuela Infantil Privada Catalina Laboure", "operator:type": "private", "phone": "+34914390123;+34620538691", "ref:educamadrid": "28049596", "short_name": "EIPR Catalina Laboure"}}, {"type": "node", "id": 266170064, "lat": 40.3924948, "lon": -3.7531664, "tags": {"addr:housenumber": "92", "addr:postcode": "28047", "addr:street": "Calle de los Y\u00e9benes", "amenity": "kindergarten", "email": "info@guarderia-aeiou.es", "isced:level": "0", "name": "Escuela Infantil Privada A.e.i.o.u.", "operator:type": "private", "phone": "+34917180405", "ref:educamadrid": "28049572", "short_name": "EIPR A.e.i.o.u."}}, {"type": "node", "id": 266170067, "lat": 40.4817847, "lon": -3.7296887, "tags": {"addr:housenumber": "3", "addr:postcode": "28035", "addr:street": "Calle Ram\u00f3n Camarero", "amenity": "kindergarten", "email": "pinar@projardin.es", "fax": "+34913862620", "isced:level": "0", "name": "Escuela Infantil Privada Maberogan Pinar", "operator:type": "private", "phone": "+34913866104", "ref:educamadrid": "28049705", "short_name": "EIPR Maberogan Pinar", "website": "https://www.projardin.es/"}}, {"type": "node", "id": 266170073, "lat": 40.3986548, "lon": -3.6940308, "tags": {"addr:housenumber": "65", "addr:postcode": "28045", "addr:street": "Paseo de las Delicias", "amenity": "kindergarten", "email": "delicias@projardin.es", "isced:level": "0", "name": "Escuela Infantil Privada Projardin Delicias", "operator:type": "private", "phone": "+34915303010;+34606214330", "ref:educamadrid": "28049651", "short_name": "EIPR Projardin Delicias", "website": "https://www.projardin.es/"}}, {"type": "node", "id": 266170075, "lat": 40.4624361, "lon": -3.6247751, "tags": {"addr:housenumber": "182", "addr:postcode": "28043", "addr:street": "Calle de Silvano", "amenity": "kindergarten", "isced:level": "0", "name": "Mi Primer Cole", "operator:type": "private", "phone": "+34913881215", "ref:educamadrid": "28050239"}}, {"type": "node", "id": 266170080, "lat": 40.4676909, "lon": -3.6613936, "tags": {"addr:housenumber": "24", "addr:postcode": "28033", "addr:street": "Calle Almarza", "amenity": "kindergarten", "isced:level": "0", "name": "La Rana Glotona", "operator:type": "private", "phone": "+34917668502", "ref:educamadrid": "28050197"}}, {"type": "node", "id": 266170091, "lat": 40.480735, "lon": -3.6686778, "tags": {"addr:housenumber": "35", "addr:postcode": "28033", "addr:street": "Calle del Condado de Trevi\u00f1o", "amenity": "kindergarten", "email": "eicascabel@hotmail.com", "isced:level": "0", "name": "Escuela Infantil Privada Cascabel", "operator:type": "private", "phone": "+34913830309", "ref:educamadrid": "28050264", "short_name": "EIPR Cascabel"}}, {"type": "node", "id": 266170111, "lat": 40.4303389, "lon": -3.7078484, "tags": {"addr:housenumber": "3", "addr:postcode": "28015", "addr:street": "Plaza del Conde del Valle Suchil", "amenity": "kindergarten", "fax": "+34914471679", "isced:level": "0", "name": "Los Locos Bajitos", "operator:type": "private", "phone": "+34915931480", "ref:educamadrid": "28058536"}}, {"type": "node", "id": 266170222, "lat": 40.4650068, "lon": -3.6753289, "tags": {"addr:housenumber": "16", "addr:postcode": "28016", "amenity": "kindergarten", "fax": "+34913597832", "isced:level": "0", "name": "Hontanar", "operator:type": "private", "phone": "+34913597832", "ref:educamadrid": "28058834"}}, {"type": "node", "id": 266170263, "lat": 40.3925324, "lon": -3.7087972, "tags": {"addr:housenumber": "67", "addr:postcode": "28019", "addr:street": "Calle Fernando D\u00edaz de Mendoza", "amenity": "kindergarten", "fax": "+34 91 460 92 50", "isced:level": "0", "name": "Escuela Infantil Tobog\u00e1n II", "operator:type": "private", "phone": "+34915696634", "ref:educamadrid": "28058767", "short_name": "EEI Tobog\u00e1n II"}}, {"type": "node", "id": 266170283, "lat": 40.3725223, "lon": -3.7515873, "tags": {"addr:housenumber": "7", "addr:postcode": "28044", "addr:street": "Avenida de Carabanchel Alto", "amenity": "kindergarten", "isced:level": "0", "name": "La Golondrina", "operator:type": "private", "phone": "+34915081234", "ref:educamadrid": "28059012"}}, {"type": "node", "id": 266170286, "lat": 40.4641632, "lon": -3.6511918, "tags": {"addr:housenumber": "5", "addr:postcode": "28043", "addr:street": "Calle Haro", "amenity": "kindergarten", "fax": "+34913004206", "isced:level": "0", "name": "C.E.I. Nuestra Se\u00f1ora de la Consolaci\u00f3n", "operator:type": "private", "ref:educamadrid": "28059024"}}, {"type": "node", "id": 266170290, "lat": 40.3938477, "lon": -3.7069254, "tags": {"addr:housenumber": "67", "addr:postcode": "28019", "addr:street": "Calle de Antonio L\u00f3pez", "amenity": "kindergarten", "fax": "+34915698257", "isced:level": "0", "name": "Projardin Praga", "operator:type": "private", "phone": "+34915698257", "ref:educamadrid": "28059036"}}, {"type": "node", "id": 266170294, "lat": 40.4298487, "lon": -3.6512033, "tags": {"addr:housenumber": "9", "addr:postcode": "28017", "addr:street": "Calle de la Vereda del Carmen", "amenity": "kindergarten", "email": "recursoshumanos@miprimercole.es", "isced:level": "0", "name": "Escuela Infantil Privada Mi Primer Cole 3", "operator:type": "private", "phone": "+34913771009;+34619466989", "ref:educamadrid": "28059048", "short_name": "EIPR Mi Primer Cole 3"}}, {"type": "node", "id": 266170299, "lat": 40.464997, "lon": -3.7232206, "tags": {"addr:housenumber": "1", "addr:postcode": "28035", "addr:street": "Calle Isla de Nelson", "amenity": "kindergarten", "email": "cc.sangabrielarcangel.madrid@educa.madrid.org", "isced:level": "0", "name": "Escuela Infantil Privada San Gabriel Arc\u00e1ngel", "operator:type": "private", "phone": "+34913165945", "ref:educamadrid": "28059051", "short_name": "EIPR San Gabriel Arc\u00e1ngel"}}, {"type": "node", "id": 266170302, "lat": 40.4246555, "lon": -3.6295809, "tags": {"addr:housenumber": "158", "addr:postcode": "28017", "amenity": "kindergarten", "isced:level": "0", "name": "Caracol", "operator:type": "private", "phone": "+34913042663", "ref:educamadrid": "28059061"}}, {"type": "node", "id": 266170325, "lat": 40.4279565, "lon": -3.7189135, "tags": {"addr:city": "Madrid", "addr:housenumber": "60", "addr:postcode": "28008", "addr:street": "Calle de Ferraz", "amenity": "kindergarten", "email": "alicia1@escuelainfantilalicia.es", "isced:level": "0", "name": "Escuela Infantil Privada Alicia", "operator:type": "private", "phone": "+34915484132;+34679535448;+34629280070", "ref:educamadrid": "28058950", "short_name": "EIPR Alicia", "website": "https://www.escuelainfantilalicia.es/"}}, {"type": "node", "id": 266170329, "lat": 40.4042521, "lon": -3.678356, "tags": {"addr:housenumber": "28", "addr:postcode": "28007", "addr:street": "Calle de Granada", "amenity": "kindergarten", "isced:level": "0", "name": "Imagen", "operator:type": "private", "phone": "+34915516765", "ref:educamadrid": "28058974"}}, {"type": "node", "id": 266170332, "lat": 40.4648187, "lon": -3.589333, "tags": {"addr:city": "Madrid", "addr:housenumber": "3", "addr:postcode": "28042", "addr:street": "Calle de Blanes", "amenity": "kindergarten", "fax": "+34917080207", "isced:level": "0", "name": "Escuela Infantil Kinder My Garden", "operator": "MARICE C.B.", "operator:type": "private", "phone": "+34912976321", "ref:educamadrid": "28058986", "short_name": "EEI Kinder My Garden", "website": "https://www.kindermygarden.com/"}}, {"type": "node", "id": 266170358, "lat": 40.4591858, "lon": -3.6583736, "tags": {"addr:housenumber": "6", "addr:postcode": "28043", "addr:street": "Calle Mat\u00edas Turri\u00f3n", "amenity": "kindergarten", "isced:level": "0", "name": "Diversi\u00f3n y Talento Divertium", "operator:type": "private", "phone": "+34913002081", "ref:educamadrid": "28059191"}}, {"type": "node", "id": 266170367, "lat": 40.4021171, "lon": -3.7040003, "tags": {"addr:housenumber": "33", "addr:postcode": "28005", "addr:street": "Calle del Laurel", "amenity": "kindergarten", "isced:level": "0", "name": "Escuela Infantil Privada Garabatos y Ocho Patos", "operator:type": "private", "phone": "+34914737344", "ref:educamadrid": "28059176", "short_name": "EIPR Garabatos y Ocho Patos"}}, {"type": "node", "id": 266170378, "lat": 40.3844877, "lon": -3.6466674, "tags": {"addr:housenumber": "12", "addr:postcode": "28018", "addr:street": "Calle del Campo de la Paloma", "amenity": "kindergarten", "email": "primeros.pasos@hotmail.com", "isced:level": "0", "name": "Escuela Infantil Privada Primeros Pasos", "operator:type": "private", "phone": "+34917788144", "ref:educamadrid": "28059140", "short_name": "EIPR Primeros Pasos"}}, {"type": "node", "id": 266170381, "lat": 40.4397179, "lon": -3.645568, "tags": {"addr:housenumber": "29", "addr:postcode": "28027", "addr:street": "Calle de Jos\u00e9 del Hierro", "amenity": "kindergarten", "check_date": "2023-05-13", "email": "patgarcia88@yahoo.es", "isced:level": "0", "name": "Escuela Infantil Privada Jaizkibel", "operator:type": "private", "phone": "+34913670322;+34699555123;+34609622403", "ref:educamadrid": "28059139", "short_name": "EIPR Jaizkibel"}}, {"type": "node", "id": 266170389, "lat": 40.40047, "lon": -3.6609085, "tags": {"addr:housenumber": "7", "addr:postcode": "28038", "addr:street": "Calle de la Sierra Toledana", "amenity": "kindergarten", "email": "directora@escuelainfantilmargal.com", "isced:level": "0", "name": "Escuela Infantil Privada Margal", "operator:type": "private", "phone": "+34625385888;+34914303211", "ref:educamadrid": "28059115", "short_name": "EIPR Margal", "website": "https://www.escuelainfantilmargal.com/"}}, {"type": "node", "id": 266170439, "lat": 40.4520747, "lon": -3.5851062, "tags": {"addr:housenumber": "11", "addr:postcode": "28042", "addr:street": "Calle Medina de Pomar", "amenity": "kindergarten", "email": "cc.lasgaviotas.madrid@educa.madrid.org", "fax": "+34913120586", "isced:level": "0", "name": "Centro Privado de Educaci\u00f3n Infantil Las Gaviotas", "operator:type": "private", "phone": "+34913120586", "ref:educamadrid": "28059334", "short_name": "CPEI Las Gaviotas"}}, {"type": "node", "id": 266170444, "lat": 40.3735027, "lon": -3.6183284, "tags": {"addr:housenumber": "1", "addr:postcode": "28031", "addr:street": "Plaza de la Sierra de Grazalema", "amenity": "kindergarten", "email": "cc.grazalema.madrid@educa.madrid.org", "fax": "+34913327569", "isced:level": "0", "name": "Escuela Infantil Privada Grazalema", "operator:type": "private", "phone": "+34913327569", "ref:educamadrid": "28059346", "short_name": "EIPR Grazalema", "website": "http://www.educa.madrid.org/cc.grazalema.madrid"}}, {"type": "node", "id": 266170475, "lat": 40.4062047, "lon": -3.7190684, "tags": {"addr:housenumber": "5", "addr:postcode": "28005", "addr:street": "Calle Cobos de Segovia", "amenity": "kindergarten", "email": "virginiafdezt@gmail.com", "fax": "+34913658580", "isced:level": "0", "name": "Escuela Infantil Privada JardIImar", "operator:type": "private", "phone": "+34913658580;+34646983464", "ref:educamadrid": "28059577", "short_name": "EIPR JardIImar", "website": "http://www.jardiimar.es/"}}, {"type": "node", "id": 266170479, "lat": 40.4525743, "lon": -3.6388981, "tags": {"addr:housenumber": "31", "addr:postcode": "28043", "addr:street": "Ronda de Sobradiel", "amenity": "kindergarten", "fax": "+34913886328", "isced:level": "0", "name": "Baloo", "operator:type": "private", "phone": "+34917593635", "ref:educamadrid": "28059619"}}, {"type": "node", "id": 266170526, "lat": 40.4004583, "lon": -3.7496137, "tags": {"addr:housenumber": "142", "addr:postcode": "28047", "addr:street": "Calle del Concejal Francisco Jos\u00e9 Jim\u00e9nez Mart\u00edn", "amenity": "kindergarten", "email": "info@eibambinos.com", "fax": "+34914637975", "isced:level": "0", "name": "Escuela Infantil Privada Bambinos", "operator:type": "private", "phone": "+34914637975;+34685179914", "ref:educamadrid": "28059486", "short_name": "EIPR Bambinos"}}, {"type": "node", "id": 266170529, "lat": 40.3777965, "lon": -3.734527, "tags": {"addr:housenumber": "186", "addr:postcode": "28019", "addr:street": "Calle del Camino Viejo de Legan\u00e9s", "amenity": "kindergarten", "email": "cc.losangeles.madrid@educa.madrid.org", "fax": "+34914618616", "isced:level": "0", "name": "Escuela Infantil Privada Los \u00c1ngeles", "operator:type": "private", "phone": "+34914618616", "ref:educamadrid": "28059474", "short_name": "EIPR Los \u00c1ngeles"}}, {"type": "node", "id": 266170562, "lat": 40.408637, "lon": -3.6993859, "tags": {"addr:city": "Madrid", "addr:housenumber": "33", "addr:postcode": "28012", "addr:street": "Calle del Salitre", "amenity": "kindergarten", "email": "cc.elcamino.madrid@educa.madrid.org", "fax": "+34914685818", "isced:level": "0", "name": "Escuela Infantil Privada El Camino", "operator:type": "private", "phone": "+34914685818;+34639829743", "ref:educamadrid": "28059668", "short_name": "EIPR El Camino"}}, {"type": "node", "id": 266170563, "lat": 40.4079196, "lon": -3.6356474, "tags": {"addr:city": "Madrid", "addr:housenumber": "206", "addr:postcode": "28030", "addr:street": "Avenida del Doctor Garc\u00eda Tapia", "amenity": "kindergarten", "email": "rosarubiobaos@gmail.com", "isced:level": "0", "name": "Escuela Infantil Privada Gui\u00f1ol", "operator:type": "private", "phone": "+34917726211", "ref:educamadrid": "28059671", "short_name": "EIPR Gui\u00f1ol"}}, {"type": "node", "id": 266170565, "lat": 40.4302229, "lon": -3.6567495}, {"type": "node", "id": 266170566, "lat": 40.481261, "lon": -3.6721657, "tags": {"addr:city": "Madrid", "addr:housenumber": "51", "addr:postcode": "28033", "addr:street": "Calle de Caleruega", "amenity": "kindergarten", "email": "elpinar@elpinar.org", "isced:level": "0", "name": "Escuela Infantil Privada El Pinar", "operator:type": "private", "phone": "+34917661154;+34636492506", "ref:educamadrid": "28059620", "short_name": "EIPR El Pinar", "website": "https://www.elpinar.org/"}}, {"type": "node", "id": 266170568, "lat": 40.370739, "lon": -3.6204808, "tags": {"addr:housenumber": "74", "addr:postcode": "28031", "addr:street": "Calle de Pe\u00f1a Nueva", "amenity": "kindergarten", "email": "info@elarrullo.es", "isced:level": "0", "name": "Escuela Infantil Privada El Arrullo I", "operator:type": "private", "phone": "+34913323769", "ref:educamadrid": "28059644", "short_name": "EIPR El Arrullo I"}}, {"type": "node", "id": 266170570, "lat": 40.3989543, "lon": -3.7070783, "tags": {"addr:city": "Madrid", "addr:housenumber": "13", "addr:postcode": "28005", "addr:street": "Calle de Las Naves", "amenity": "kindergarten", "isced:level": "0", "name": "Escuela Infantil Privada Blancanitos 2", "operator:type": "private", "phone": "+34914740926", "ref:educamadrid": "28059656", "short_name": "EIPR Blancanitos 2"}}, {"type": "node", "id": 266170571, "lat": 40.4562353, "lon": -3.7136992, "tags": {"addr:housenumber": "106", "addr:postcode": "28039", "addr:street": "Avenida del Doctor Federico Rubio y Gal\u00ed", "amenity": "kindergarten", "email": "todoparalainfancia@gmail.com", "fax": "+34914507782", "isced:level": "0", "name": "Escuela Infantil Privada Todo Para la Infancia", "operator:type": "private", "phone": "+34914507782;+34670639349", "ref:educamadrid": "28057091", "short_name": "EIPR Todo Para la Infancia", "website": "http://www.todoparalainfancia.es"}}, {"type": "node", "id": 266170575, "lat": 40.4108453, "lon": -3.6562048, "tags": {"addr:housenumber": "29", "addr:postcode": "28030", "addr:street": "Calle del Arroyo de la Media Legua", "amenity": "kindergarten", "email": "globos@escuelainfantilmoratalaz.es", "isced:level": "0", "name": "Centro Privado de Educaci\u00f3n Infantil Globos", "operator:type": "private", "phone": "+34914370889;+34646728452", "ref:educamadrid": "28057143", "short_name": "CPEI Globos"}}, {"type": "node", "id": 266170576, "lat": 40.4642146, "lon": -3.7000713, "tags": {"addr:housenumber": "26", "addr:postcode": "28039", "addr:street": "Calle de Fray Jun\u00edpero Serra", "amenity": "kindergarten", "email": "cc.nsvictoriastetuan.madrid@educa.madrid.org", "fax": "+34915703462", "isced:level": "0", "name": "Escuela Infantil Privada Nuestra Se\u00f1ora de las Victorias", "operator:type": "private", "phone": "+34915703462;+34618077047", "ref:educamadrid": "28057155", "short_name": "EIPR Nuestra Se\u00f1ora de las Victorias", "website": "http://www.escuelansvictorias.es"}}, {"type": "node", "id": 266170585, "lat": 40.3526999, "lon": -3.7012642, "tags": {"addr:housenumber": "45", "addr:postcode": "28041", "addr:street": "Calle de la Hermandad de Donantes de Sangre", "amenity": "kindergarten", "fax": "+34917988880", "isced:level": "0", "name": "Nuevo Liceo", "operator:type": "private", "phone": "+34917988880", "ref:educamadrid": "28057234"}}, {"type": "node", "id": 266170589, "lat": 40.4823617, "lon": -3.7104998, "tags": {"addr:housenumber": "61", "addr:postcode": "28034", "addr:street": "Calle de Ferm\u00edn Caballero", "amenity": "kindergarten", "email": "lavaguada@escuelanemomarlin.com", "isced:level": "0", "name": "Escuela Infantil Privada Nemomarlin la Vaguada", "operator:type": "private", "phone": "+34917397984;+34606207503", "ref:educamadrid": "28057295", "short_name": "EIPR Nemomarlin la Vaguada"}}, {"type": "node", "id": 266170590, "lat": 40.4642037, "lon": -3.6399908, "tags": {"addr:housenumber": "83", "addr:postcode": "28043", "addr:street": "Calle de Alcorisa", "amenity": "kindergarten", "isced:level": "0", "name": "Pispajos", "operator:type": "private", "phone": "+34917599568", "ref:educamadrid": "28057283"}}, {"type": "node", "id": 266170602, "lat": 40.4743669, "lon": -3.6522945, "tags": {"addr:housenumber": "32", "addr:postcode": "28033", "addr:street": "Avenida de la Virgen del Carmen", "amenity": "kindergarten", "email": "zcn.sanmiguel.madrid@educa.madrid.org", "isced:level": "0", "name": "Zona Casas de Ni\u00f1os Capital-3, San Miguel", "operator": "Comunidad de Madrid", "operator:type": "public", "phone": "+34913820145", "ref:educamadrid": "28057416", "website": "http://www.educa.madrid.org/zcn.sanmiguel.madrid"}}, {"type": "node", "id": 266170630, "lat": 40.3880342, "lon": -3.7613129, "tags": {"addr:housenumber": "129", "addr:postcode": "28024", "addr:street": "Calle de Maqueda", "amenity": "kindergarten", "fax": "+34917182308", "isced:level": "0", "name": "Projardin Aluche", "operator:type": "private", "phone": "+34917182308", "ref:educamadrid": "28057581"}}, {"type": "node", "id": 266170631, "lat": 40.4584229, "lon": -3.6993855, "tags": {"addr:housenumber": "93", "addr:postcode": "28020", "addr:street": "Calle de L\u00e9rida", "amenity": "kindergarten", "email": "administracion@mininanos.com", "isced:level": "0", "name": "Escuela Infantil Privada Mininanos", "operator:type": "private", "phone": "+34608007124", "ref:educamadrid": "28057601", "short_name": "EIPR Mininanos", "website": "http://mininanos.com/"}}, {"type": "node", "id": 266170635, "lat": 40.4510118, "lon": -3.6112649, "tags": {"addr:housenumber": "12", "addr:postcode": "28042", "addr:street": "Calle de Isla de Cuba", "amenity": "kindergarten", "isced:level": "0", "name": "Armon\u00eda", "operator:type": "private", "phone": "+34913931328", "ref:educamadrid": "28057611"}}, {"type": "node", "id": 266170636, "lat": 40.4020431, "lon": -3.6465362, "tags": {"addr:housenumber": "81", "addr:postcode": "28030", "addr:street": "Calle del Corregidor Juan Francisco de Luj\u00e1n", "amenity": "kindergarten", "email": "paulafernandezmo@hotmail.es", "isced:level": "0", "name": "Escuela Infantil Privada Lunalu", "operator:type": "private", "phone": "+34919281414;+34620873048", "ref:educamadrid": "28057647", "short_name": "EIPR Lunalu"}}, {"type": "node", "id": 266170639, "lat": 40.4277569, "lon": -3.6270401, "tags": {"addr:housenumber": "2", "addr:postcode": "28037", "addr:street": "Calle Castillo de Simancas", "amenity": "kindergarten", "fax": "+34913049055", "isced:level": "0", "name": "La Casita de Do\u00f1a Tortuga, S.L.L.", "operator:type": "private", "phone": "+34913049055", "ref:educamadrid": "28057659"}}, {"type": "node", "id": 266170644, "lat": 40.4267611, "lon": -3.7046693, "tags": {"addr:housenumber": "2", "addr:postcode": "28004", "addr:street": "Calle del Dos de Mayo", "amenity": "kindergarten", "email": "eei.elduende.madrid@educa.madrid.org", "fax": "+34915227256", "isced:level": "0", "name": "Escuela Infantil El Duende", "operator:type": "public", "phone": "+34915235187;+34915227256", "ref:educamadrid": "28057696", "short_name": "EEI El Duende", "website": "http://www.educa.madrid.org/eei.elduende.madrid"}}, {"type": "node", "id": 266170656, "lat": 40.3928594, "lon": -3.7118408, "tags": {"addr:housenumber": "1", "addr:postcode": "28019", "addr:street": "Calle Inmaculada Concepci\u00f3n", "amenity": "kindergarten", "email": "cc.ntrasradelaencarnacion.madrid@educa.madrid.org", "isced:level": "0", "name": "Escuela Infantil Privada Nuestra Se\u00f1ora de la Encarnaci\u00f3n", "operator:type": "private", "phone": "+34611482537;+34619256350", "ref:educamadrid": "28057763", "short_name": "EIPR Nuestra Se\u00f1ora de la Encarnaci\u00f3n", "website": "http://escuelainfantilencarnacion.blogspot.com.es/"}}, {"type": "node", "id": 266170659, "lat": 40.4507028, "lon": -3.6672534, "tags": {"addr:housenumber": "30", "addr:postcode": "28002", "addr:street": "Avenida de Alfonso XIII", "amenity": "kindergarten", "email": "osobuco@osobuco.net", "isced:level": "0", "name": "Escuela Infantil Privada Osobuco II", "operator:type": "private", "phone": "+34914139286;+34637855184", "ref:educamadrid": "28057921", "short_name": "EIPR Osobuco II", "website": "https://osobuco.net/"}}, {"type": "node", "id": 266170665, "lat": 40.4350879, "lon": -3.6723929, "tags": {"addr:housenumber": "17", "addr:postcode": "28028", "addr:street": "Calle Jos\u00e9 Pic\u00f3n", "amenity": "kindergarten", "email": "eei.ruizjimenez.madrid@educa.madrid.org", "fax": "+34911694809", "isced:level": "0", "name": "Escuela Infantil Ruiz Jim\u00e9nez", "operator:type": "public", "phone": "+34911694809;+34656799538", "ref:educamadrid": "28057866", "short_name": "EEI Ruiz Jim\u00e9nez", "website": "http://www.educa.madrid.org/eei.ruizjimenez.madrid"}}, {"type": "node", "id": 266170706, "lat": 40.4770064, "lon": -3.7231015, "tags": {"addr:housenumber": "49", "addr:postcode": "28035", "addr:street": "Calle de Joaqu\u00edn Jorge Alarc\u00f3n", "amenity": "kindergarten", "email": "garabatosmadrid@gmail.com", "isced:level": "0", "name": "Escuela Infantil Privada Garabatos", "operator:type": "private", "phone": "+34913163140;+34645764815", "ref:educamadrid": "28058263", "short_name": "EIPR Garabatos"}}, {"type": "node", "id": 266170710, "lat": 40.377829, "lon": -3.6205114, "tags": {"addr:housenumber": "12", "addr:postcode": "28031", "addr:street": "Calle del Pico de Mont\u00e1nchez", "amenity": "kindergarten", "email": "escuelainfantilbambis@hotmail.com", "fax": "+34913320691", "isced:level": "0", "name": "Escuela Infantil Privada Bambis", "operator:type": "private", "phone": "+34913320691", "ref:educamadrid": "28058275", "short_name": "EIPR Bambis"}}, {"type": "node", "id": 266170711, "lat": 40.3643728, "lon": -3.7044493}, {"type": "node", "id": 266170712, "lat": 40.4407571, "lon": -3.6151811, "tags": {"addr:housenumber": "25", "addr:postcode": "28022", "addr:street": "Avenida de Canillejas a Vic\u00e1lvaro", "amenity": "kindergarten", "isced:level": "0", "name": "Escuela Infantil Don Melit\u00f3n", "operator:type": "private", "phone": "+34917412075", "ref:educamadrid": "28058381", "short_name": "EEI Don Melit\u00f3n"}}, {"type": "node", "id": 266170728, "lat": 40.5002277, "lon": -3.6911447, "tags": {"addr:housenumber": "23", "addr:postcode": "28034", "addr:street": "Ronda del Ingenioso Hidalgo", "amenity": "kindergarten", "isced:level": "0", "name": "Escolandia II", "operator:type": "private", "phone": "+34917353334", "ref:educamadrid": "28061729"}}, {"type": "node", "id": 266170734, "lat": 40.4035666, "lon": -3.6840669, "tags": {"addr:housenumber": "7", "addr:postcode": "28007", "addr:street": "Calle de Antonio Nebrija", "amenity": "kindergarten", "email": "eei.lasnubes.madrid@educa.madrid.org", "fax": "+34915012443", "isced:level": "0", "name": "Escuela Infantil Las Nubes", "operator:type": "public", "phone": "+34915012443", "ref:educamadrid": "28061699", "short_name": "EEI Las Nubes", "website": "http://www.educa.madrid.org/eei.lasnubes.madrid"}}, {"type": "node", "id": 266170737, "lat": 40.3847527, "lon": -3.6107459, "tags": {"addr:housenumber": "21", "addr:postcode": "28031", "addr:street": "Avenida de Santa Eugenia", "amenity": "kindergarten", "email": "laluna171921@yahoo.es", "fax": "+34913326077", "isced:level": "0", "name": "Escuela Infantil Privada La Luna", "operator:type": "private", "phone": "+34659090346;+34630018184", "ref:educamadrid": "28061638", "short_name": "EIPR La Luna", "website": "http://www.escuelainfantillaluna.es"}}, {"type": "node", "id": 266170738, "lat": 40.3865397, "lon": -3.7515176, "tags": {"addr:housenumber": "118", "addr:postcode": "28047", "addr:street": "Calle de Nuestra Se\u00f1ora de la Luz", "amenity": "kindergarten", "fax": "+34916320943", "isced:level": "0", "name": "Color\u00edn", "operator:type": "private", "phone": "+34917192918", "ref:educamadrid": "28061614"}}, {"type": "node", "id": 266170739, "lat": 40.3995673, "lon": -3.707014, "tags": {"addr:city": "Madrid", "addr:housenumber": "32", "addr:postcode": "28005", "addr:street": "Calle de Arganda", "amenity": "kindergarten", "email": "ceialegrekoala@gmail.com", "isced:level": "0", "name": "Escuela Infantil Privada Alegre Koala", "operator:type": "private", "phone": "+34660939708", "ref:educamadrid": "28061602", "short_name": "EIPR Alegre Koala"}}, {"type": "node", "id": 266170742, "lat": 40.4090215, "lon": -3.6624619, "tags": {"addr:city": "Madrid", "addr:housenumber": "2", "addr:postcode": "28030", "addr:street": "Calle de Lituania", "amenity": "kindergarten", "email": "bambiytambor@gmail.com", "fax": "+34913283036", "isced:level": "0", "name": "Escuela Infantil Privada Bambi y Tambor", "operator:type": "private", "phone": "+34913283036;+34650650944", "ref:educamadrid": "28061572", "short_name": "EIPR Bambi y Tambor"}}, {"type": "node", "id": 266170743, "lat": 40.3994561, "lon": -3.7001076, "tags": {"addr:housenumber": "4", "addr:postcode": "28045", "addr:street": "Calle del General Palanca", "amenity": "kindergarten", "isced:level": "0", "name": "Escuela Infantil Privada Pipo's", "operator:type": "private", "phone": "+34914736299;+34691669616", "ref:educamadrid": "28061560", "short_name": "EIPR Pipo's"}}, {"type": "node", "id": 266170744, "lat": 40.4477399, "lon": -3.6670826, "tags": {"addr:housenumber": "3", "addr:postcode": "28002", "addr:street": "Calle de Luis de Salazar", "amenity": "kindergarten", "email": "info@carruselescuelainfantil.com", "isced:level": "0", "name": "Escuela Infantil Privada Carrusel", "operator:type": "private", "phone": "+34914131350", "ref:educamadrid": "28061559", "short_name": "EIPR Carrusel"}}, {"type": "node", "id": 266170747, "lat": 40.3994285, "lon": -3.7061406, "tags": {"addr:housenumber": "21", "addr:postcode": "28005", "addr:street": "Calle de Las Naves", "amenity": "kindergarten", "check_date": "2023-07-04", "email": "escuelachuly@gmail.com", "isced:level": "0", "name": "Escuela Infantil Privada Chuly", "operator:type": "private", "phone": "+34914743389;+34609528232;+34609528607", "ref:educamadrid": "28061535", "short_name": "EIPR Chuly", "website": "http://www.escuelainfantilchuly.com/"}}, {"type": "node", "id": 266170749, "lat": 40.393154, "lon": -3.780455, "tags": {"addr:housenumber": "16", "addr:postcode": "28024", "addr:street": "Calle de Mingorr\u00eda", "amenity": "kindergarten", "fax": "+34917118918", "isced:level": "0", "name": "Escuela Infantil Privada Bamby", "operator:type": "private", "phone": "+34917118918", "ref:educamadrid": "28061511", "short_name": "EIPR Bamby", "website": "https://escuela-infantil-bambi.es/"}}, {"type": "node", "id": 266170750, "lat": 40.4070034, "lon": -3.6319819, "tags": {"addr:housenumber": "33", "addr:postcode": "28030", "addr:street": "Calle de la Fuente Carrantona", "amenity": "kindergarten", "email": "info@ozitopanda.com", "fax": "+34917511480", "isced:level": "0", "name": "Escuela Infantil Privada Ozito Panda", "operator:type": "private", "phone": "+34917511480;+34678119209", "ref:educamadrid": "28061501", "short_name": "EIPR Ozito Panda"}}, {"type": "node", "id": 266170753, "lat": 40.3657766, "lon": -3.6532677, "tags": {"addr:housenumber": "3", "addr:postcode": "28031", "amenity": "kindergarten", "isced:level": "0", "name": "El Tr\u00e9bol M\u00e1gico", "old_name": "El Bosque Encantado", "operator:type": "private", "phone": "+34917851476", "ref:educamadrid": "28061471"}}, {"type": "node", "id": 266170760, "lat": 40.3845456, "lon": -3.7085571, "tags": {"addr:housenumber": "39", "addr:postcode": "28026", "addr:street": "Calle de Gabriel Usera", "amenity": "kindergarten", "isced:level": "0", "name": "Nubes", "operator:type": "private", "phone": "+34915004161", "ref:educamadrid": "28061407"}}, {"type": "node", "id": 266170762, "lat": 40.449814, "lon": -3.6493964, "tags": {"addr:housenumber": "8", "addr:postcode": "28043", "addr:street": "Calle de Gregorio Ben\u00edtez", "amenity": "kindergarten", "email": "gelipri@yahoo.es", "isced:level": "0", "name": "Escuela Infantil Privada La Virgen Ni\u00f1a", "operator:type": "private", "phone": "+34913003185", "ref:educamadrid": "28061420", "short_name": "EIPR La Virgen Ni\u00f1a"}}, {"type": "node", "id": 266170777, "lat": 40.4224696, "lon": -3.6082723, "tags": {"addr:housenumber": "11", "addr:postcode": "28022", "addr:street": "Calle de Suecia", "amenity": "kindergarten", "email": "suecia@escuelasinfantilesgarden.es", "isced:level": "0", "name": "Escuela Infantil Privada Suecia Garden", "operator:type": "private", "phone": "+34917759557", "ref:educamadrid": "28061331", "short_name": "EIPR Suecia Garden"}}, {"type": "node", "id": 266170781, "lat": 40.4183522, "lon": -3.6134814, "tags": {"addr:housenumber": "114", "addr:postcode": "28032", "addr:street": "Calle Toscana", "amenity": "kindergarten", "email": "toscana@escuelasinfantilesgarden.es", "isced:level": "0", "name": "Escuela Infantil Privada Toscana Garden", "operator:type": "private", "phone": "+34913134446", "ref:educamadrid": "28061274", "short_name": "EIPR Toscana Garden"}}, {"type": "node", "id": 266170790, "lat": 40.4116422, "lon": -3.6747646, "tags": {"addr:housenumber": "6", "addr:postcode": "28009", "addr:street": "Calle Reyes Magos", "amenity": "kindergarten", "email": "direccion@escuelaeducando.com", "isced:level": "0", "name": "Escuela Infantil Privada Educando Pitufos", "operator:type": "private", "phone": "+34910869437", "ref:educamadrid": "28061183", "short_name": "EIPR Educando Pitufos"}}, {"type": "node", "id": 266170797, "lat": 40.4083308, "lon": -3.7355499, "tags": {"addr:housenumber": "1", "addr:postcode": "28011", "addr:street": "Plaza de Sisenando", "amenity": "kindergarten", "isced:level": "0", "name": "La Jirafa", "operator:type": "private", "phone": "+34914635950", "ref:educamadrid": "28062436"}}, {"type": "node", "id": 266170798, "lat": 40.4778641, "lon": -3.7228039, "tags": {"addr:housenumber": "33", "addr:postcode": "28035", "addr:street": "Calle de las Islas Bahamas", "amenity": "kindergarten", "email": "chelocerezo@gmail.com", "isced:level": "0", "name": "Escuela Infantil Privada La Abeja Maya", "operator:type": "private", "phone": "+34913732652", "ref:educamadrid": "28062448", "short_name": "EIPR La Abeja Maya"}}, {"type": "node", "id": 266170799, "lat": 40.4790187, "lon": -3.6457304, "tags": {"addr:housenumber": "30", "addr:postcode": "28033", "addr:street": "Calle de Santa Susana", "amenity": "kindergarten", "email": "lauraypatri@laguardedelhuerto.com", "isced:level": "0", "name": "Escuela Infantil Privada La Guarde del Huerto", "operator:type": "private", "phone": "+34913839795;+34638233548", "ref:educamadrid": "28062412", "short_name": "EIPR La Guarde del Huerto", "website": "https://www.laguardedelhuerto.com/"}}, {"type": "node", "id": 266170805, "lat": 40.3809573, "lon": -3.6576719, "tags": {"addr:housenumber": "85", "addr:postcode": "28018", "addr:street": "Avenida de Pablo Neruda", "amenity": "kindergarten", "isced:level": "0", "name": "Rechuflas", "operator:type": "private", "phone": "+34917856826", "ref:educamadrid": "28062461"}}, {"type": "node", "id": 266170806, "lat": 40.4784805, "lon": -3.6749873, "tags": {"addr:housenumber": "28", "addr:postcode": "28036", "addr:street": "Avenida de Burgos", "amenity": "kindergarten", "email": "info@guarderiaeltren.com", "fax": "+34913025639", "isced:level": "0", "name": "Escuela Infantil Privada El Tren de los Ni\u00f1os II", "operator:type": "private", "phone": "+34913025639;+34672749690", "ref:educamadrid": "28062357", "short_name": "EIPR El Tren de los Ni\u00f1os II"}}, {"type": "node", "id": 266170812, "lat": 40.4625773, "lon": -3.660801, "tags": {"addr:housenumber": "18", "addr:postcode": "28033", "addr:street": "Calle Mesena", "amenity": "kindergarten", "email": "info@suspequenospasos.es", "isced:level": "0", "name": "Escuela Infantil Privada Escuela Infantil Biling\u00fce Sus Peque\u00f1os Pasos-arturo Soria", "operator:type": "private", "phone": "+34913882377", "ref:educamadrid": "28062400", "short_name": "EIPR EEI Biling\u00fce Sus Peque\u00f1os Pasos-arturo Soria"}}, {"type": "node", "id": 266170816, "lat": 40.4215586, "lon": -3.6673903, "tags": {"addr:housenumber": "4", "addr:postcode": "28028", "addr:street": "Calle Condes de Torreanaz", "amenity": "kindergarten", "isced:level": "0", "name": "Escuela Infantil Privada Trazos", "operator:type": "private", "phone": "+34915743094", "ref:educamadrid": "28062278", "short_name": "EIPR Trazos"}}, {"type": "node", "id": 266170818, "lat": 40.4246994, "lon": -3.6007552, "tags": {"addr:housenumber": "181", "addr:postcode": "28022", "addr:street": "Calle de Sof\u00eda", "amenity": "kindergarten", "fax": "+34917755979", "isced:level": "0", "name": "Sof\u00eda Garden", "operator:type": "private", "phone": "+34917755979", "ref:educamadrid": "28062254"}}, {"type": "node", "id": 266170819, "lat": 40.3900369, "lon": -3.6674984, "tags": {"addr:city": "Madrid", "addr:housenumber": "41", "addr:postcode": "28053", "addr:street": "Calle Sierra Alcaraz", "amenity": "kindergarten", "fax": "+34914773508", "isced:level": "0", "name": "Vickie", "operator:type": "private", "phone": "+34914773508", "ref:educamadrid": "28062242"}}, {"type": "node", "id": 266170821, "lat": 40.4464047, "lon": -3.6451602, "tags": {"addr:housenumber": "14", "addr:postcode": "28027", "addr:street": "Calle del Marqu\u00e9s de Portugalete", "amenity": "kindergarten", "email": "mctorresalcaide@yahoo.es", "fax": "+34917424442", "isced:level": "0", "name": "Escuela Infantil Privada Nuestra Se\u00f1ora de la Providencia", "operator:type": "private", "phone": "+34917421434;+34647894845", "ref:educamadrid": "28062308", "short_name": "EIPR Nuestra Se\u00f1ora de la Providencia"}}, {"type": "node", "id": 266170831, "lat": 40.4502246, "lon": -3.6828383, "tags": {"addr:housenumber": "3", "addr:postcode": "28002", "addr:street": "Calle del Segre", "amenity": "kindergarten", "fax": "+34915614079", "language:de": "main", "name": "Escuela Infantil El Delfin Don Mulder", "phone": "+34915614079", "ref:educamadrid": "28062175", "short_name": "EEI El Delfin Don Mulder"}}, {"type": "node", "id": 266170870, "lat": 40.3493873, "lon": -3.6892459, "tags": {"addr:housenumber": "23", "addr:postcode": "28021", "addr:street": "Calle de Benita L\u00f3pez", "amenity": "kindergarten", "isced:level": "0", "name": "Liceo Rosales II", "operator:type": "private", "phone": "+34917974120", "ref:educamadrid": "28061997"}}, {"type": "node", "id": 266170873, "lat": 40.3784518, "lon": -3.7470222, "tags": {"addr:housenumber": "6", "addr:postcode": "28025", "addr:street": "Calle de la \u00c9poca", "amenity": "kindergarten", "email": "info@diventium.es", "isced:level": "0", "name": "Escuela Infantil Privada Diventium", "operator:type": "private", "phone": "+34914220014", "ref:educamadrid": "28062001", "short_name": "EIPR Diventium", "website": "https://www.diventium.es/"}}, {"type": "node", "id": 266170883, "lat": 40.4389257, "lon": -3.6156597, "tags": {"addr:housenumber": "52", "addr:postcode": "28037", "addr:street": "Calle de Juli\u00e1n Camarillo", "amenity": "kindergarten", "email": "centroinfantilcaracol@gmail.com", "isced:level": "0", "name": "Escuela Infantil Privada Caracol 2000", "operator:type": "private", "phone": "+34913272076;+34692887180", "ref:educamadrid": "28062047", "short_name": "EIPR Caracol 2000"}}, {"type": "node", "id": 266170886, "lat": 40.4632972, "lon": -3.6428302, "tags": {"addr:housenumber": "98", "addr:postcode": "28043", "amenity": "kindergarten", "isced:level": "0", "name": "Puzzle", "ref:educamadrid": "28062060"}}, {"type": "node", "id": 266170890, "lat": 40.4718021, "lon": -3.6480687, "tags": {"addr:housenumber": "16", "addr:postcode": "28043", "addr:street": "Calle Torregrosa", "amenity": "kindergarten", "email": "info@domoescuelainfantil.es", "isced:level": "0", "name": "Escuela Infantil Privada Domo", "operator:type": "private", "phone": "+34911383601;+34660492189;+34647201134", "ref:educamadrid": "28061912", "short_name": "EIPR Domo", "website": "https://domoescuelainfantil.es/"}}, {"type": "node", "id": 266170895, "lat": 40.383018, "lon": -3.7694349, "tags": {"addr:housenumber": "37", "addr:postcode": "28044", "addr:street": "Avenida de Las \u00c1guilas", "amenity": "kindergarten", "isced:level": "0", "name": "Marce", "operator:type": "private", "phone": "+34917059105", "ref:educamadrid": "28061936"}}, {"type": "node", "id": 266170898, "lat": 40.4318731, "lon": -3.7013013, "tags": {"addr:housenumber": "18", "addr:postcode": "28010", "addr:street": "Calle de Palafox", "amenity": "kindergarten", "email": "mafaldosdechamberi@gmail.com", "isced:level": "0", "name": "Escuela Infantil Privada Mafalda", "operator:type": "private", "phone": "+34680366888;+34914475258;+34619936725", "ref:educamadrid": "28061924", "short_name": "EIPR Mafalda"}}, {"type": "node", "id": 266170901, "lat": 40.4351013, "lon": -3.6495207, "tags": {"addr:city": "Madrid", "addr:housenumber": "60", "addr:postcode": "28027", "addr:street": "Calle de la Virgen de Lluc", "amenity": "kindergarten", "email": "burgosperezcb@gmail.com", "isced:level": "0", "name": "Escuela Infantil Privada Santa Mar\u00eda", "operator:type": "private", "phone": "+34914036459;+34696635202", "ref:educamadrid": "28061951", "short_name": "EIPR Santa Mar\u00eda"}}, {"type": "node", "id": 266170907, "lat": 40.4693976, "lon": -3.6527403, "tags": {"addr:housenumber": "15", "addr:postcode": "28033", "addr:street": "Calle Seo de Urgel", "amenity": "kindergarten", "email": "e_i_sandy@hotmail.com", "isced:level": "0", "name": "Escuela Infantil Privada Sandy", "operator:type": "private", "phone": "+34917669384;+34619174174", "ref:educamadrid": "28061973", "short_name": "EIPR Sandy", "website": "http://www.escuela-infantil-sandy.org"}}, {"type": "node", "id": 266170909, "lat": 40.3933423, "lon": -3.7568952, "tags": {"addr:housenumber": "96", "addr:postcode": "28047", "addr:street": "Calle de Camarena", "amenity": "kindergarten", "email": "escuelainfantilwoody@hotmail.com", "isced:level": "0", "name": "Escuela Infantil Privada Woody", "operator:type": "private", "phone": "+34911439378;+34619635090", "ref:educamadrid": "28061961", "short_name": "EIPR Woody"}}, {"type": "node", "id": 266170915, "lat": 40.4178337, "lon": -3.6194871, "tags": {"addr:housenumber": "3", "addr:postcode": "28032", "addr:street": "Calle R\u00e1vena", "amenity": "kindergarten", "isced:level": "0", "name": "La Casita", "operator:type": "private", "phone": "+34913062682", "ref:educamadrid": "28061821"}}, {"type": "node", "id": 266170934, "lat": 40.4469484, "lon": -3.686897, "tags": {"addr:city": "Madrid", "addr:housenumber": "16", "addr:postcode": "28002", "addr:street": "Calle del Guadalquivir", "amenity": "kindergarten", "email": "luisa@micosmiprimercole.com", "fax": "+34917451792", "isced:level": "0", "name": "Centro Privado de Educaci\u00f3n Infantil Micos, Mi Primer Cole", "operator:type": "private", "phone": "+34917451791;+34607620211", "ref:educamadrid": "28061882", "short_name": "CPEI Micos, Mi Primer Cole"}}, {"type": "node", "id": 266170979, "lat": 40.4898221, "lon": -3.7046901, "tags": {"addr:housenumber": "19", "addr:postcode": "28034", "addr:street": "Calle del Collado del Viento", "amenity": "kindergarten", "email": "olgalazara@hotmail.com", "isced:level": "0", "name": "Escuela Infantil Privada Geminis", "operator:type": "private", "phone": "+34917340455", "ref:educamadrid": "28060181", "short_name": "EIPR Geminis"}}, {"type": "node", "id": 266170982, "lat": 40.4601858, "lon": -3.7801716}, {"type": "node", "id": 266170987, "lat": 40.3769736, "lon": -3.6185789, "tags": {"addr:housenumber": "17", "addr:postcode": "28031", "addr:street": "Calle de los Montes de Barbanza", "amenity": "kindergarten", "isced:level": "0", "name": "El Arrullo II", "operator:type": "private", "phone": "+34913315863", "ref:educamadrid": "28060178"}}, {"type": "node", "id": 266171019, "lat": 40.4547309, "lon": -3.6153115, "tags": {"addr:housenumber": "17", "addr:postcode": "28042", "addr:street": "Calle de Guadalajara", "amenity": "kindergarten", "fax": "+34916318231", "isced:level": "0", "name": "Centro Est\u00edmulos", "operator:type": "private", "phone": "+34913200870", "ref:educamadrid": "28060014"}}, {"type": "node", "id": 266171021, "lat": 40.39266, "lon": -3.7647988, "tags": {"addr:housenumber": "54", "addr:postcode": "28024", "addr:street": "Calle de Maqueda", "amenity": "kindergarten", "email": "eielreydelacasa@gmail.com", "isced:level": "0", "name": "Escuela Infantil Privada El Rey de la Casa", "operator:type": "private", "phone": "+34915182182;+34600669018", "ref:educamadrid": "28060051", "short_name": "EIPR El Rey de la Casa"}}, {"type": "node", "id": 266171037, "lat": 40.3898517, "lon": -3.6619644, "tags": {"addr:housenumber": "23", "addr:postcode": "28018", "addr:street": "Calle de Carlos Mart\u00edn \u00c1lvarez", "amenity": "kindergarten", "email": "elchovo@materclem.es", "fax": "+34914771327", "isced:level": "0", "name": "Escuela Infantil Privada El Chovo", "operator:type": "private", "phone": "+34914775949", "ref:educamadrid": "28060002", "short_name": "EIPR El Chovo", "website": "https://www.materclem.es/"}}, {"type": "node", "id": 266171043, "lat": 40.3466444, "lon": -3.7094484, "tags": {"addr:housenumber": "1", "addr:postcode": "28021", "addr:street": "Calle de Santa Cristina", "amenity": "kindergarten", "fax": "+34915052183", "isced:level": "0", "name": "Peque\u00f1o/A Compa\u00f1ero/A", "operator:type": "private", "phone": "+34917970424", "ref:educamadrid": "28060117"}}, {"type": "node", "id": 266171049, "lat": 40.4707614, "lon": -3.642169, "tags": {"addr:housenumber": "39", "addr:postcode": "28033", "amenity": "kindergarten", "fax": "+34913813284", "isced:level": "0", "name": "El Parque", "operator:type": "private", "phone": "+34913813284", "ref:educamadrid": "28060130"}}, {"type": "node", "id": 266171052, "lat": 40.4401981, "lon": -3.6152586, "tags": {"addr:housenumber": "24", "addr:postcode": "28022", "addr:street": "Avenida de Canillejas a Vic\u00e1lvaro", "amenity": "kindergarten", "email": "cei5estrellas@5estrellas.e.telefonica.net", "fax": "+34917420825", "isced:level": "0", "name": "Escuela Infantil Privada Cinco Estrellas", "operator:type": "private", "phone": "+34913203806;+34917420825", "ref:educamadrid": "28060129", "short_name": "EIPR Cinco Estrellas"}}, {"type": "node", "id": 266171056, "lat": 40.3988045, "lon": -3.7608216, "tags": {"addr:housenumber": "28", "addr:postcode": "28024", "addr:street": "Calle de Sese\u00f1a", "amenity": "kindergarten", "check_date": "2023-08-17", "email": "minimosydiminutos@gmail.com", "isced:level": "0", "name": "Escuela Infantil Privada Minimos y Diminutos", "operator:type": "private", "phone": "+34915185289;+34693 29 64", "ref:educamadrid": "28060063", "short_name": "EIPR Minimos y Diminutos"}}, {"type": "node", "id": 266171064, "lat": 40.4651336, "lon": -3.7229861, "tags": {"addr:housenumber": "12", "addr:postcode": "28035", "addr:street": "Calle Isla de Nelson", "amenity": "kindergarten", "fax": "+34913169706", "isced:level": "0", "name": "Caperucita", "operator:type": "private", "phone": "+34913169706", "ref:educamadrid": "28059838", "website": "http://www.eicaperucita.com"}}, {"type": "node", "id": 266171074, "lat": 40.3768305, "lon": -3.6191838, "tags": {"addr:housenumber": "23", "addr:postcode": "28031", "addr:street": "Calle de los Montes de Barbanza", "amenity": "kindergarten", "isced:level": "0", "name": "El Arrullo III", "operator:type": "private", "phone": "+34913315863", "ref:educamadrid": "28059796"}}, {"type": "node", "id": 266171081, "lat": 40.4079016, "lon": -3.6531017, "tags": {"addr:housenumber": "3", "addr:postcode": "28030", "addr:street": "Plaza del Corregidor Sancho de C\u00f3rdoba", "amenity": "kindergarten", "email": "arcoirismoratalaz@hotmail.com", "isced:level": "0", "name": "Escuela Infantil Privada Arco Iris", "operator:type": "private", "phone": "+34914372185;+34666296921", "ref:educamadrid": "28059826", "short_name": "EIPR Arco Iris", "website": "http://arcoirismoratalaz.blogspot.com.es/"}}, {"type": "node", "id": 266171094, "lat": 40.403605, "lon": -3.6311068, "tags": {"addr:housenumber": "26", "addr:postcode": "28030", "addr:street": "Calle de Valdebernardo", "amenity": "kindergarten", "isced:level": "0", "name": "Disney", "operator:type": "private", "phone": "+34917734418", "ref:educamadrid": "28059887"}}, {"type": "node", "id": 266171132, "lat": 40.4635656, "lon": -3.6371502, "tags": {"addr:city": "Madrid", "addr:housenumber": "6", "addr:postcode": "28043", "addr:street": "Calle de las Sic\u00e9lidas", "amenity": "kindergarten", "email": "NUEVOSPROYECTOSEI@HOTMAIL.COM", "fax": "+34913003491", "isced:level": "0", "name": "Escuela Infantil Privada La Jirafa", "opening_hours": "Mo-Fr 07:00-19:00", "operator:type": "private", "phone": "+34913003491", "ref:educamadrid": "28061067", "short_name": "EIPR La Jirafa"}}, {"type": "node", "id": 266171135, "lat": 40.4451115, "lon": -3.6413412, "tags": {"addr:housenumber": "65", "addr:postcode": "28027", "addr:street": "Calle del General Aranaz", "amenity": "kindergarten", "email": "cangurito@cangurito.com", "isced:level": "0", "name": "Escuela Infantil Privada Cangurito", "operator:type": "private", "phone": "+34917422469;+34677934452", "ref:educamadrid": "28061134", "short_name": "EIPR Cangurito", "website": "https://cangurito.com/"}}, {"type": "node", "id": 266171137, "lat": 40.4739708, "lon": -3.6355024, "tags": {"addr:housenumber": "8", "addr:postcode": "28033", "addr:street": "Calle Sincelejo", "amenity": "kindergarten", "isced:level": "0", "name": "Dumbo", "operator:type": "private", "phone": "+34917644462", "ref:educamadrid": "28061122"}}, {"type": "node", "id": 266171140, "lat": 40.4075478, "lon": -3.7102564, "tags": {"addr:city": "Madrid", "addr:housenumber": "9", "addr:postcode": "28005", "addr:street": "Calle Capit\u00e1n Salazar Mart\u00ednez", "amenity": "kindergarten", "email": "cuatropecas@gmail.com", "fax": "+34659595271", "isced:level": "0", "name": "Escuela Infantil Privada Cuatro Pecas el Carmen", "operator:type": "private", "phone": "+34913657910;+34659595271", "ref:educamadrid": "28061110", "short_name": "EIPR Cuatro Pecas el Carmen"}}, {"type": "node", "id": 266171143, "lat": 40.3938707, "lon": -3.664914, "tags": {"addr:housenumber": "8", "addr:postcode": "28053", "addr:street": "Colonia de Erillas", "amenity": "kindergarten", "isced:level": "0", "name": "El Desv\u00e1n", "operator:type": "private", "ref:educamadrid": "28060831"}}, {"type": "node", "id": 266171144, "lat": 40.3883121, "lon": -3.6933444, "tags": {"addr:city": "Madrid", "addr:housenumber": "26", "addr:postcode": "28045", "addr:street": "Calle del Teniente Coronel Nore\u00f1a", "amenity": "kindergarten", "email": "eicosquillas@gmail.com", "isced:level": "0", "name": "Escuela Infantil Privada Cosquillas II", "operator:type": "private", "phone": "+34915272673;+34640634908", "ref:educamadrid": "28060841", "short_name": "EIPR Cosquillas II", "website": "https://www.escuelainfantilcosquillas.es/"}}, {"type": "node", "id": 266171146, "lat": 40.4283283, "lon": -3.6094213, "tags": {"addr:housenumber": "36", "addr:postcode": "28022", "addr:street": "Calle de Longares", "amenity": "kindergarten", "email": "tanucaescuelainfantil@gmail.com", "isced:level": "0", "name": "Escuela Infantil Privada Tanuca", "operator:type": "private", "phone": "+34722509730", "ref:educamadrid": "28060828", "short_name": "EIPR Tanuca"}}, {"type": "node", "id": 266171147, "lat": 40.3471065, "lon": -3.7143155, "tags": {"addr:housenumber": "9", "addr:postcode": "28021", "addr:street": "Calle del Sulfato", "amenity": "kindergarten", "email": "bananaymelon.sl@gmail.com", "isced:level": "0", "name": "Escuela Infantil Privada Monkey Banana", "operator:type": "private", "phone": "+34695427416;+34637251489", "ref:educamadrid": "28060877", "short_name": "EIPR Monkey Banana"}}, {"type": "node", "id": 266171154, "lat": 40.4749813, "lon": -3.7181442, "tags": {"addr:housenumber": "43", "addr:postcode": "28029", "addr:street": "Calle de La Ba\u00f1eza", "amenity": "kindergarten", "email": "adelaleon@escuelainfantilnanos.es", "isced:level": "0", "name": "Escuela Infantil Privada Nanos", "operator:type": "private", "phone": "+34913861519;+34686355814", "ref:educamadrid": "28060890", "short_name": "EIPR Nanos", "website": "https://www.escuelainfantilnanos.es/"}},